id,name,categories,latitude,longitude,state,college,distance_from_college,rating,acadamic_rating,review_count,permanently_closed,TakesReservations,Delivery,Take-out,AcceptsCreditCards,AcceptsBitcoin,GoodFor,Parking,BikeParking,WheelchairAccessible,GoodforKids,GoodforGroups,Attire,Ambience,NoiseLevel,Alcohol,OutdoorSeating,Wi-Fi,HasTV,DogsAllowed,WaiterService,Caters,Drive-Thru,Price
eat-ann-arbor-charter-township,eat,"['catering', 'streetvendors', 'newamerican']",42.2585716,-83.7287216,MI,"500 S State St, Ann Arbor, MI 48109",2233.0183389426,4.5,53,False,No,No,Yes,Yes,,Lunch,Private Lot,Yes,,Yes,No,Casual,Hipster,Average,No,Yes,No,No,,No,Yes,,2,
frita-batidos-ann-arbor,Frita Batidos,"['cuban', 'burgers']",42.280388736,-83.7494552135,MI,"500 S State St, Ann Arbor, MI 48109",813.6940604064,4,598,False,No,No,Yes,Yes,,Lunch,Street,Yes,Yes,Yes,Yes,Casual,Casual,Average,Full Bar,Yes,Free,No,,No,Yes,No,2,
zingermans-delicatessen-ann-arbor-2,Zingerman's Delicatessen,"['delis', 'breakfast_brunch', 'sandwiches']",42.2844740042,-83.7452775307,MI,"500 S State St, Ann Arbor, MI 48109",972.2749502118,4,968,False,No,No,Yes,Yes,,Lunch,Street,Yes,Yes,Yes,Yes,Casual,Casual,Loud,No,Yes,Free,No,,No,Yes,,2,
jerusalem-garden-ann-arbor,Jerusalem Garden,"['mideastern', 'mediterranean']",42.279186,-83.745895,MI,"500 S State St, Ann Arbor, MI 48109",529.3728983609,4,396,False,No,No,Yes,Yes,,Lunch,Street,Yes,No,Yes,No,Casual,Casual,Average,No,Yes,No,No,,Yes,Yes,,1,
aventura-ann-arbor,Aventura,"['tapas', 'spanish', 'bars']",42.28026,-83.746473,MI,"500 S State St, Ann Arbor, MI 48109",616.8209366402,4,190,False,Yes,No,No,Yes,,Dinner,Street,Yes,Yes,No,Yes,Casual,Trendy,Average,Full Bar,Yes,Free,No,No,Yes,No,,2,
mani-osteria-and-bar-ann-arbor,Mani Osteria & Bar,"['italian', 'pizza']",42.2794617,-83.744403,MI,"500 S State St, Ann Arbor, MI 48109",439.6294556651,4,348,False,Yes,No,Yes,Yes,,Dinner,Street,Yes,Yes,No,Yes,Casual,Trendy,Average,Full Bar,Yes,Free,Yes,No,Yes,Yes,,2,
jolly-pumpkin-cafe-and-brewery-ann-arbor-3,Jolly Pumpkin Cafe & Brewery,"['pubs', 'newamerican']",42.2788765571,-83.7485352159,MI,"500 S State St, Ann Arbor, MI 48109",662.9016019339,4,424,False,Yes,No,Yes,Yes,,"Lunch, Dinner",Street,Yes,No,No,Yes,Casual,Casual,Average,Full Bar,Yes,No,Yes,,Yes,No,,2,
monahans-seafood-market-ann-arbor,Monahan's Seafood Market,"['seafood', 'seafoodmarkets']",42.2843156755,-83.7459267676,MI,"500 S State St, Ann Arbor, MI 48109",949.2616465266,4.5,80,False,No,No,Yes,Yes,,Lunch,Street,Yes,Yes,Yes,No,Casual,Casual,Loud,No,Yes,Free,No,No,Yes,Yes,,2,
neopapalis-ann-arbor,NeoPapalis,"['salad', 'pizza', 'sandwiches']",42.2775307,-83.7428818,MI,"500 S State St, Ann Arbor, MI 48109",193.7971634078,4,119,False,No,No,Yes,Yes,,"Lunch, Dinner",Street,Yes,,Yes,Yes,Casual,Casual,Average,Beer & Wine Only,Yes,Free,Yes,,No,Yes,,1,
the-lunch-room-ann-arbor-4,The Lunch Room,"['vegan', 'vegetarian', 'gluten_free']",42.28445792,-83.7464096625,MI,"500 S State St, Ann Arbor, MI 48109",1005.7426259522,4.5,97,False,No,No,Yes,Yes,,Lunch,"Garage, Street, Private Lot",Yes,Yes,Yes,Yes,Casual,Casual,Average,Full Bar,Yes,,No,No,Yes,Yes,,1,
pacific-rim-ann-arbor,Pacific Rim,['asianfusion'],42.279816,-83.749374,MI,"500 S State St, Ann Arbor, MI 48109",774.0182563893,4,262,False,Yes,No,No,Yes,,Dinner,Street,Yes,Yes,No,Yes,Casual,Romantic,Average,Full Bar,No,No,No,,Yes,No,,3,
isalita-ann-arbor,Isalita,['mexican'],42.2794618,-83.7444065,MI,"500 S State St, Ann Arbor, MI 48109",439.8052401722,4,211,False,Yes,No,Yes,Yes,,Dinner,Street,Yes,Yes,No,Yes,Casual,Trendy,Average,Full Bar,Yes,Free,Yes,No,Yes,Yes,,2,
babo-a-market-by-sava-ann-arbor-3,Babo: A Market By Sava,"['delis', 'coffee', 'grocery']",42.2804794,-83.7433929,MI,"500 S State St, Ann Arbor, MI 48109",520.3500408209,4.5,78,False,No,No,Yes,Yes,,Lunch,Street,Yes,,Yes,No,Casual,Hipster,Average,Beer & Wine Only,Yes,Free,No,,No,Yes,,2,
savas-ann-arbor,Sava's,['newamerican'],42.2795792,-83.7409668,MI,"500 S State St, Ann Arbor, MI 48109",383.4436876265,3.5,381,False,Yes,No,Yes,Yes,,Lunch,Street,Yes,Yes,Yes,Yes,Casual,Casual,Average,Full Bar,Yes,Free,Yes,,Yes,Yes,,2,
tomukun-korean-barbeque-ann-arbor,Tomukun Korean Barbeque,"['korean', 'bbq']",42.2795502,-83.7427918,MI,"500 S State St, Ann Arbor, MI 48109",387.9973557063,4,66,False,Yes,No,Yes,Yes,,Dinner,Street,Yes,,Yes,Yes,Casual,Casual,Average,Full Bar,Yes,No,Yes,,Yes,No,,2,
vinology-ann-arbor,Vinology,"['wine_bars', 'latin']",42.281052,-83.7486748,MI,"500 S State St, Ann Arbor, MI 48109",808.513958403,4,247,False,Yes,No,Yes,Yes,,Dinner,"Garage, Street",Yes,Yes,No,Yes,Dressy,Upscale,Average,Full Bar,Yes,Free,No,,Yes,No,,3,
rich-j-c-korean-restaurant-ann-arbor-2,Rich J C Korean Restaurant,['korean'],42.2751465,-83.73246,MI,"500 S State St, Ann Arbor, MI 48109",750.9720191527,4,83,False,No,No,Yes,Yes,,Dinner,Street,Yes,No,No,No,Casual,,Average,No,No,No,No,,Yes,No,,1,
the-chop-house-ann-arbor,The Chop House,['steak'],42.2787018,-83.7488251,MI,"500 S State St, Ann Arbor, MI 48109",686.2410954446,4,182,False,Yes,No,Yes,Yes,,Dinner,"Garage, Street",Yes,Yes,No,Yes,Dressy,Upscale,Average,Full Bar,No,No,No,,Yes,Yes,,4,
broadway-café-and-jumbo-steak-hoagie-ann-arbor-2,Broadway Café & Jumbo Steak Hoagie,"['korean', 'sandwiches']",42.2906036,-83.7367935,MI,"500 S State St, Ann Arbor, MI 48109",1643.7031440629,4.5,58,False,No,No,Yes,Yes,,Lunch,Private Lot,Yes,Yes,Yes,Yes,Casual,Divey,Average,No,No,No,No,,Yes,No,,1,
ashleys-ann-arbor,Ashley's,"['pubs', 'tradamerican']",42.278088,-83.74115,MI,"500 S State St, Ann Arbor, MI 48109",206.0832703864,4,297,False,No,No,Yes,Yes,,"Dinner, Late Night",Street,Yes,Yes,No,Yes,Casual,Casual,Loud,Full Bar,Yes,Free,Yes,,Yes,No,,2,
café-zola-ann-arbor-2,Café Zola,"['turkish', 'breakfast_brunch']",42.2806282,-83.7488174,MI,"500 S State St, Ann Arbor, MI 48109",825.3431795472,4,430,False,Yes,No,Yes,Yes,,Brunch,Street,Yes,Yes,Yes,Yes,Casual,Casual,Average,Full Bar,Yes,No,No,,Yes,,,2,
sushi-town-ann-arbor,Sushi Town,['sushi'],42.269619,-83.7398605,MI,"500 S State St, Ann Arbor, MI 48109",745.2960497279,4,132,False,No,No,Yes,Yes,,"Lunch, Dinner",Private Lot,No,Yes,Yes,Yes,Casual,Casual,Quiet,No,Yes,No,Yes,,No,No,,1,
logan-restaurant-ann-arbor,Logan Restaurant,['newamerican'],42.280239,-83.749344,MI,"500 S State St, Ann Arbor, MI 48109",796.9648210392,4,168,False,Yes,No,Yes,Yes,,Dinner,Street,Yes,Yes,No,Yes,Dressy,Intimate,Average,Full Bar,Yes,No,No,,Yes,No,,3,
tomukun-noodle-bar-ann-arbor,Tomukun Noodle Bar,['asianfusion'],42.2795601,-83.7427826,MI,"500 S State St, Ann Arbor, MI 48109",387.9973557063,3.5,298,False,No,No,Yes,Yes,,"Lunch, Dinner",Street,Yes,Yes,No,Yes,Casual,Trendy,Average,Full Bar,No,Free,Yes,,Yes,No,,2,
taste-kitchen-ann-arbor,Taste Kitchen,"['desserts', 'diners', 'seafood']",42.2795716828,-83.7423401932,MI,"500 S State St, Ann Arbor, MI 48109",380.3034226547,4,37,False,Yes,No,Yes,Yes,No,"Lunch, Dinner","Garage, Street",Yes,Yes,Yes,Yes,Casual,Romantic,Average,Full Bar,No,Free,Yes,No,Yes,Yes,,2,
slurping-turtle-ann-arbor,Slurping Turtle,"['japanese', 'sushi']",42.2793574,-83.7420072,MI,"500 S State St, Ann Arbor, MI 48109",351.6230955402,3.5,172,False,Yes,Yes,Yes,Yes,,Dessert,"Garage, Street",Yes,Yes,Yes,Yes,Casual,Casual,Loud,Full Bar,No,Free,Yes,,Yes,Yes,,2,
anthonys-gourmet-pizza-ann-arbor-2,Anthony's Gourmet Pizza,['pizza'],42.2737015039,-83.7490300834,MI,"500 S State St, Ann Arbor, MI 48109",714.2054268802,4,55,False,No,Yes,Yes,Yes,,Dinner,Private Lot,,Yes,Yes,Yes,Casual,Casual,Average,No,No,No,No,,No,Yes,,2,
mezzevino-ann-arbor,Mezzevino,['mediterranean'],42.2794869495,-83.747577268,MI,"500 S State St, Ann Arbor, MI 48109",629.5982031742,3.5,51,False,Yes,No,No,Yes,,Dinner,Garage,Yes,,No,Yes,Casual,"Trendy, Classy",Average,Full Bar,No,No,Yes,,Yes,No,,2,
ginger-deli-ann-arbor,Ginger Deli,"['delis', 'sandwiches', 'asianfusion']",42.2792315483,-83.7439888716,MI,"500 S State St, Ann Arbor, MI 48109",411.0042308196,4,71,False,No,No,Yes,Yes,,Lunch,Street,Yes,,Yes,No,Casual,Casual,Average,No,Yes,No,No,,No,Yes,,1,
afternoon-delight-ann-arbor-2,Afternoon Delight,"['tradamerican', 'breakfast_brunch']",42.2796135,-83.7467957,MI,"500 S State St, Ann Arbor, MI 48109",558.333727598,4,183,False,No,No,Yes,Yes,,Brunch,Street,Yes,Yes,Yes,Yes,Casual,Casual,Average,No,Yes,No,No,,Yes,Yes,,2,
caseys-tavern-ann-arbor,Casey's Tavern,"['pubs', 'tradamerican']",42.287605,-83.744194,MI,"500 S State St, Ann Arbor, MI 48109",1315.321733485,4,154,False,No,No,Yes,Yes,,Dinner,Street,Yes,,Yes,Yes,Casual,Casual,Average,Full Bar,No,No,Yes,,Yes,No,,2,
rods-diner-ann-arbor,Rod's Diner,"['desserts', 'newamerican', 'korean']",42.2714882,-83.7408371,MI,"500 S State St, Ann Arbor, MI 48109",523.3318546907,4,58,False,No,No,Yes,Yes,,"Late Night, Dessert",Street,Yes,No,Yes,Yes,Casual,Casual,Quiet,No,No,No,Yes,,No,No,,1,
la-dolce-vita-ann-arbor,La Dolce Vita,['italian'],42.2787018,-83.7488251,MI,"500 S State St, Ann Arbor, MI 48109",686.2410954446,4,94,False,No,No,Yes,Yes,,Dessert,Street,Yes,Yes,No,Yes,Dressy,Classy,Average,Full Bar,No,No,No,,Yes,No,,2,
madras-masala-ann-arbor,Madras Masala,['indpak'],42.2784004,-83.7423477,MI,"500 S State St, Ann Arbor, MI 48109",253.2544209047,4,191,False,Yes,No,Yes,Yes,,Lunch,"Garage, Street",Yes,Yes,Yes,Yes,Casual,Casual,Average,No,No,No,No,,Yes,Yes,,2,
the-west-end-grill-ann-arbor,The West End Grill,"['newamerican', 'tradamerican']",42.2798195,-83.749588,MI,"500 S State St, Ann Arbor, MI 48109",781.8858824606,4,53,False,Yes,No,No,Yes,,Dinner,Street,No,No,No,Yes,Dressy,Romantic,Average,Full Bar,No,No,No,,Yes,No,,3,
northside-grill-ann-arbor,Northside Grill,"['diners', 'breakfast_brunch']",42.289436,-83.739326,MI,"500 S State St, Ann Arbor, MI 48109",1476.7673032942,4,145,False,No,No,Yes,Yes,,Breakfast,Private Lot,Yes,No,Yes,Yes,Casual,Casual,Average,No,Yes,No,No,No,Yes,No,,1,
el-manantial-ann-arbor,El Manantial,"['foodtrucks', 'mexican']",42.280346,-83.750313,MI,"500 S State St, Ann Arbor, MI 48109",870.2318460603,5,7,False,No,No,Yes,Yes,,Lunch,,Yes,,Yes,Yes,Casual,,Average,Beer & Wine Only,Yes,No,No,,No,Yes,,1,
grizzly-peak-brewing-company-ann-arbor,Grizzly Peak Brewing Company,"['newamerican', 'breweries']",42.2805438191,-83.7489067018,MI,"500 S State St, Ann Arbor, MI 48109",833.1093279344,3.5,307,False,Yes,No,Yes,Yes,,"Lunch, Dinner",Street,Yes,Yes,Yes,Yes,Casual,Casual,Average,Full Bar,Yes,No,Yes,,Yes,No,,2,
old-town-ann-arbor,Old Town,"['bars', 'tradamerican']",42.279827,-83.74968,MI,"500 S State St, Ann Arbor, MI 48109",795.7076393798,4,86,False,No,No,Yes,Yes,,"Dinner, Late Night",Street,Yes,No,No,Yes,Casual,Casual,Average,Full Bar,No,No,Yes,,Yes,No,,2,
pita-kabob-grill-ann-arbor,Pita Kabob Grill,"['mideastern', 'mediterranean']",42.2778723389,-83.7416318804,MI,"500 S State St, Ann Arbor, MI 48109",178.6988273721,4,76,False,No,Yes,Yes,Yes,,Lunch,Street,Yes,No,Yes,No,Casual,Casual,Average,No,Yes,No,No,,Yes,Yes,,1,
maize-n-blue-deli-ann-arbor,Maize N Blue Deli,['delis'],42.2751999,-83.7321472,MI,"500 S State St, Ann Arbor, MI 48109",763.6622289673,4,87,False,No,Yes,Yes,Yes,,Lunch,Street,Yes,,Yes,Yes,Casual,Casual,Average,No,No,No,Yes,,No,Yes,,2,
marks-carts-ann-arbor,Mark's Carts,"['streetvendors', 'foodstands']",42.2803841,-83.7503815,MI,"500 S State St, Ann Arbor, MI 48109",896.5098900861,4,57,False,No,No,Yes,Yes,,Lunch,Street,Yes,,Yes,Yes,Casual,Casual,Average,No,Yes,No,No,,No,No,,1,
cardamom-ann-arbor,Cardamom,['indpak'],42.2982445,-83.7218704,MI,"500 S State St, Ann Arbor, MI 48109",2965.0462518969,4,164,False,No,No,Yes,Yes,,Dinner,Private Lot,Yes,,Yes,Yes,Casual,Casual,Average,Beer & Wine Only,Yes,No,No,,Yes,Yes,,2,
suvai-palace-ann-arbor,Suvai Palace,['indpak'],42.2776718,-83.7443161,MI,"500 S State St, Ann Arbor, MI 48109",299.6776264654,4.5,29,False,Yes,,Yes,Yes,,,,Yes,,Yes,Yes,Casual,,Average,No,Yes,,No,,Yes,Yes,,2,
earthen-jar-ann-arbor,Earthen Jar,"['vegetarian', 'indpak']",42.2791061401,-83.7458572388,MI,"500 S State St, Ann Arbor, MI 48109",491.6183050759,4,131,False,No,No,Yes,Yes,,"Lunch, Dinner",Street,Yes,No,Yes,No,Casual,Casual,Average,No,Yes,No,No,,No,Yes,,1,
fleetwood-diner-ann-arbor,Fleetwood Diner,['diners'],42.279453,-83.750107,MI,"500 S State St, Ann Arbor, MI 48109",807.399251338,3.5,167,False,No,No,Yes,Yes,,Breakfast,Street,Yes,No,No,No,Casual,Divey,Average,No,Yes,No,No,,Yes,No,,1,
aut-bar-ann-arbor,Aut Bar,"['gaybars', 'breakfast_brunch', 'mexican']",42.2838563472,-83.7474355102,MI,"500 S State St, Ann Arbor, MI 48109",983.1880512259,4,100,False,Yes,No,Yes,Yes,,Brunch,Street,Yes,Yes,Yes,Yes,Casual,Casual,Average,Full Bar,Yes,Free,Yes,,Yes,No,,2,
kosmo-ann-arbor,Kosmo,"['diners', 'korean']",42.2843156755,-83.7459267676,MI,"500 S State St, Ann Arbor, MI 48109",949.2616465266,3.5,88,False,No,No,Yes,Yes,,Lunch,Street,Yes,Yes,Yes,No,Casual,Casual,Average,No,No,,No,,No,No,,1,
belly-deli-ann-arbor,Belly Deli,"['korean', 'asianfusion', 'sandwiches']",42.2750398,-83.7328193,MI,"500 S State St, Ann Arbor, MI 48109",711.1783632492,4,58,False,No,No,Yes,Yes,,Lunch,Street,Yes,,Yes,Yes,Casual,Casual,Average,No,No,No,No,,No,Yes,,1,
mr-spots-ann-arbor,Mr. Spots,"['sandwiches', 'tradamerican']",42.2716217,-83.7407532,MI,"500 S State St, Ann Arbor, MI 48109",517.553821862,4,48,False,No,Yes,Yes,Yes,,Lunch,Street,Yes,Yes,Yes,Yes,Casual,Casual,Average,No,No,,Yes,,No,No,,1,
real-seafood-co-ann-arbor-2,Real Seafood Co,['seafood'],42.2784691,-83.7484818,MI,"500 S State St, Ann Arbor, MI 48109",619.007091092,3.5,182,False,Yes,No,Yes,Yes,,Dinner,"Garage, Street",Yes,Yes,No,Yes,Casual,Classy,Average,Full Bar,Yes,No,No,,Yes,Yes,,2,
salads-up-ann-arbor-2,Salads UP,"['salad', 'juicebars', 'icecream']",42.2794171166,-83.7414715423,MI,"500 S State St, Ann Arbor, MI 48109",353.8060210831,4,15,False,No,No,Yes,Yes,,Lunch,"Garage, Street",Yes,,Yes,Yes,Casual,Casual,Average,No,No,Free,No,No,No,Yes,,2,
mezes-greek-grill-ann-arbor,Mezes Greek Grill,['greek'],42.278915,-83.740021,MI,"500 S State St, Ann Arbor, MI 48109",316.083802442,4.5,24,False,No,Yes,Yes,Yes,,Lunch,Street,Yes,Yes,Yes,Yes,Casual,Casual,Average,No,No,Free,Yes,,No,Yes,,1,
angelos-restaurant-ann-arbor,Angelo's Restaurant,"['newamerican', 'breakfast_brunch']",42.282887,-83.735397,MI,"500 S State St, Ann Arbor, MI 48109",899.0933373331,3.5,183,False,No,No,Yes,Yes,,Breakfast,"Street, Private Lot",Yes,Yes,Yes,Yes,Casual,Casual,Average,No,No,Free,No,,Yes,No,,2,
gandy-dancer-restaurant-ann-arbor,Gandy Dancer Restaurant,"['seafood', 'breakfast_brunch']",42.287187,-83.741602,MI,"500 S State St, Ann Arbor, MI 48109",1217.7653181115,3.5,179,False,Yes,No,No,Yes,,Dinner,Valet,Yes,Yes,Yes,Yes,Dressy,Classy,Average,Full Bar,Yes,Free,No,,Yes,No,,3,
blue-tractor-bbq-and-brewery-ann-arbor,Blue Tractor BBQ & Brewery,"['bbq', 'breweries']",42.2805519,-83.7469559,MI,"500 S State St, Ann Arbor, MI 48109",676.6999320364,3.5,270,False,Yes,No,Yes,Yes,,Dinner,Street,Yes,Yes,Yes,Yes,Casual,Casual,Average,Full Bar,Yes,No,Yes,,Yes,No,,2,
what-crepe-ann-arbor,What Crepe?,"['newamerican', 'creperies']",42.2795192,-83.7463317,MI,"500 S State St, Ann Arbor, MI 48109",551.2052695838,3.5,120,False,Yes,No,Yes,Yes,,Brunch,Street,Yes,Yes,Yes,Yes,Casual,Trendy,Average,Full Bar,Yes,Free,Yes,,Yes,Yes,,2,
lena-ann-arbor,Lena,['latin'],42.279745,-83.7489779,MI,"500 S State St, Ann Arbor, MI 48109",741.6584555721,3,183,False,Yes,No,Yes,Yes,,Dinner,Street,Yes,Yes,No,Yes,Casual,Trendy,Average,Full Bar,Yes,Free,Yes,,Yes,Yes,,2,
prickly-pear-southwest-cafe-ann-arbor,Prickly Pear Southwest Cafe,"['tex-mex', 'mexican']",42.2786217,-83.7490311,MI,"500 S State St, Ann Arbor, MI 48109",669.947380433,3.5,154,False,No,No,Yes,Yes,,Dinner,Street,Yes,Yes,Yes,No,Casual,Casual,Average,Full Bar,Yes,No,No,,Yes,No,,2,
the-ravens-club-ann-arbor,The Ravens Club,"['tradamerican', 'lounges']",42.2801742554,-83.7481918335,MI,"500 S State St, Ann Arbor, MI 48109",715.5751866202,3.5,154,False,Yes,No,Yes,Yes,,"Dinner, Late Night","Garage, Street",Yes,Yes,No,Yes,Casual,Trendy,Average,Full Bar,Yes,Free,Yes,No,Yes,Yes,,2,
gratzi-ann-arbor,Gratzi,['italian'],42.278688401,-83.7487122416,MI,"500 S State St, Ann Arbor, MI 48109",663.6726147406,3.5,174,False,Yes,No,Yes,Yes,,Dinner,"Garage, Street",Yes,Yes,No,Yes,Dressy,Classy,Average,Full Bar,Yes,No,No,,Yes,No,,3,
grange-kitchen-and-bar-ann-arbor,Grange Kitchen & Bar,['newamerican'],42.2798194885,-83.7495193481,MI,"500 S State St, Ann Arbor, MI 48109",784.1348588419,3.5,192,False,Yes,No,No,Yes,,Dinner,Street,Yes,No,No,Yes,Casual,Intimate,Average,Full Bar,No,No,No,,Yes,Yes,,3,
the-black-pearl-ann-arbor,The Black Pearl,"['seafood', 'lounges']",42.279335,-83.7487946,MI,"500 S State St, Ann Arbor, MI 48109",707.6201925587,3.5,141,False,Yes,No,Yes,Yes,,Dinner,Street,Yes,Yes,No,Yes,Casual,Hipster,Average,Full Bar,Yes,No,Yes,,Yes,No,,2,
pilars-tamales-ann-arbor,Pilar's Tamales,['latin'],42.2738778591,-83.7777672708,MI,"500 S State St, Ann Arbor, MI 48109",3001.333302981,4.5,82,False,No,No,Yes,Yes,,Lunch,Private Lot,Yes,Yes,Yes,No,Casual,Casual,Quiet,No,No,Free,No,,No,Yes,,1,
totoro-ann-arbor,Totoro,"['sushi', 'japanese']",42.2796584494,-83.7407970428,MI,"500 S State St, Ann Arbor, MI 48109",382.7287996674,3.5,123,False,Yes,No,Yes,Yes,,Lunch,Street,Yes,Yes,Yes,Yes,Casual,Casual,Average,No,No,Free,Yes,No,Yes,No,,2,
jefferson-market-ann-arbor,Jefferson Market,"['bakeries', 'breakfast_brunch']",42.275749,-83.755317,MI,"500 S State St, Ann Arbor, MI 48109",1154.7990449631,4,26,False,Yes,No,Yes,Yes,,Brunch,Street,Yes,No,Yes,No,Casual,,Average,No,Yes,Free,No,No,Yes,Yes,,2,
get-some-burritos-ann-arbor,Get Some Burritos,"['mexican', 'hotdogs']",42.2707745,-83.7401893,MI,"500 S State St, Ann Arbor, MI 48109",614.4201234568,4,18,False,No,Yes,Yes,Yes,,,,Yes,,Yes,Yes,Casual,Casual,Quiet,No,No,,No,,No,,No,1,
pizza-house-ann-arbor,Pizza House,"['pizza', 'italian']",42.2743456,-83.7347695,MI,"500 S State St, Ann Arbor, MI 48109",577.8046053633,3.5,239,False,Yes,Yes,Yes,Yes,No,"Dinner, Late Night","Garage, Street, Validated",Yes,Yes,Yes,Yes,Casual,Casual,Average,Full Bar,Yes,Free,Yes,No,Yes,Yes,,2,
zingermans-roadhouse-ann-arbor,Zingerman's Roadhouse,"['newamerican', 'bagels', 'delis']",42.2800043562,-83.7809927322,MI,"500 S State St, Ann Arbor, MI 48109",3291.5041137721,4,603,False,Yes,No,Yes,Yes,,"Lunch, Dinner",Private Lot,Yes,No,Yes,Yes,Casual,Casual,Average,Full Bar,Yes,Free,No,,Yes,Yes,,2,
seoul-street-ann-arbor,Seoul Street,['korean'],42.2985423903,-83.7199467159,MI,"500 S State St, Ann Arbor, MI 48109",3039.6819309154,4,187,False,No,Yes,Yes,Yes,,"Lunch, Dinner",Private Lot,Yes,Yes,Yes,No,Casual,Casual,Average,No,Yes,No,No,,No,No,,1,
btb-burrito-ann-arbor-3,BTB Burrito,['mexican'],42.2715492,-83.7408371,MI,"500 S State St, Ann Arbor, MI 48109",519.4095168907,3.5,145,False,No,No,Yes,Yes,,Late Night,Street,Yes,Yes,No,No,Casual,Divey,Average,No,Yes,Free,Yes,,No,No,,1,
knights-downtown-ann-arbor-steakhouse-ann-arbor,Knight's Downtown Ann Arbor Steakhouse,['steak'],42.2793574,-83.7420095,MI,"500 S State St, Ann Arbor, MI 48109",351.654000224,3.5,65,False,Yes,No,Yes,Yes,,Dinner,Garage,Yes,,Yes,Yes,Casual,Classy,Average,Full Bar,No,Free,Yes,,Yes,Yes,,2,
new-york-pizza-depot-ann-arbor,New York Pizza Depot,"['pizza', 'sandwiches']",42.2778730094,-83.7417498976,MI,"500 S State St, Ann Arbor, MI 48109",182.0505461989,3.5,164,False,No,Yes,Yes,Yes,,"Lunch, Dinner, Late Night",Street,Yes,Yes,Yes,Yes,Casual,Casual,Average,No,Yes,Free,Yes,,No,Yes,,1,
btb-cantina-ann-arbor-2,BTB Cantina,"['bars', 'mexican']",42.274792,-83.734833,MI,"500 S State St, Ann Arbor, MI 48109",537.4548458376,4,41,False,No,No,Yes,Yes,,Late Night,Street,Yes,No,No,Yes,Casual,Casual,Loud,Full Bar,No,Free,Yes,,No,,,1,
chelas-ann-arbor,Chela's,['mexican'],42.2736753523,-83.7799210846,MI,"500 S State St, Ann Arbor, MI 48109",3197.2634919257,4.5,123,False,No,No,Yes,Yes,,Lunch,Private Lot,Yes,,Yes,Yes,Casual,Casual,Average,No,No,No,Yes,,No,Yes,,1,
kangs-korean-restaurant-ann-arbor-2,Kang's Korean Restaurant,['korean'],42.2750546783,-83.732567355,MI,"500 S State St, Ann Arbor, MI 48109",748.7325235966,3.5,68,False,No,No,Yes,Yes,,Lunch,Street,Yes,No,Yes,Yes,Casual,Divey,Average,No,No,No,No,,No,,,1,
the-broken-egg-ann-arbor,The Broken Egg,"['tradamerican', 'breakfast_brunch']",42.2831116,-83.7486877,MI,"500 S State St, Ann Arbor, MI 48109",941.3255957096,3,115,False,No,No,Yes,Yes,,Breakfast,Street,Yes,Yes,Yes,Yes,Casual,Casual,Average,No,No,No,Yes,,Yes,No,,1,
taste-of-india-ann-arbor,Taste of India,['indpak'],42.2796516,-83.7406921,MI,"500 S State St, Ann Arbor, MI 48109",345.8594766628,4,73,False,Yes,Yes,Yes,Yes,,Lunch,Street,Yes,Yes,Yes,Yes,Casual,Casual,Average,No,No,No,Yes,,Yes,,,2,
san-street-ann-arbor,San Street,"['streetvendors', 'asianfusion']",42.2803841,-83.7503815,MI,"500 S State St, Ann Arbor, MI 48109",896.5098900861,4.5,14,False,No,No,Yes,Yes,,Lunch,Street,Yes,Yes,Yes,Yes,Casual,"Hipster, Casual",Average,No,Yes,No,No,,No,,,2,
wings-over-ann-arbor-ann-arbor,Wings Over - Ann Arbor,"['chicken_wings', 'bbq']",42.2984582931,-83.7227337062,MI,"500 S State St, Ann Arbor, MI 48109",2904.5213995134,3.5,19,False,No,Yes,Yes,Yes,,"Dinner, Late Night",,Yes,,Yes,No,Casual,,Quiet,No,No,No,No,,No,No,,1,
dominicks-ann-arbor,Dominick's,"['italian', 'lounges']",42.273129,-83.738762,MI,"500 S State St, Ann Arbor, MI 48109",408.5348713973,3.5,144,False,No,No,Yes,Yes,,"Lunch, Dinner",Street,Yes,No,No,Yes,Casual,Casual,Loud,Full Bar,Yes,No,No,,No,No,,2,
red-hawk-bar-and-grill-ann-arbor,Red Hawk Bar & Grill,"['bars', 'tradamerican']",42.278755,-83.741127,MI,"500 S State St, Ann Arbor, MI 48109",280.2193032025,3.5,128,False,No,No,Yes,Yes,,Lunch,"Street, Validated",Yes,Yes,Yes,Yes,Casual,Casual,Average,Full Bar,Yes,No,Yes,,Yes,No,,2,
no-thai-ann-arbor,No Thai!,['thai'],42.2748756,-83.7329483,MI,"500 S State St, Ann Arbor, MI 48109",717.37613091,3,119,False,No,Yes,Yes,Yes,,Lunch,Street,Yes,No,Yes,Yes,Casual,Casual,Average,No,No,Free,No,,No,No,,1,
amadeus-ann-arbor,Amadeus,"['polish', 'russian', 'hungarian']",42.280273,-83.747551,MI,"500 S State St, Ann Arbor, MI 48109",681.9595078866,3.5,52,False,Yes,No,Yes,Yes,,Dinner,Street,Yes,Yes,No,No,Casual,Romantic,Quiet,Full Bar,Yes,Free,No,,Yes,,,2,
melange-ann-arbor,Melange,"['asianfusion', 'lounges']",42.279019,-83.749017,MI,"500 S State St, Ann Arbor, MI 48109",705.4627120074,3.5,136,False,Yes,No,Yes,Yes,No,Dinner,Street,Yes,Yes,No,Yes,Casual,Classy,Average,Full Bar,Yes,Free,Yes,,Yes,Yes,,3,
palio-ann-arbor,Palio,['italian'],42.278267,-83.748291,MI,"500 S State St, Ann Arbor, MI 48109",617.2935282323,3,142,False,Yes,No,Yes,Yes,,Dinner,"Garage, Street",Yes,Yes,Yes,Yes,Casual,Casual,Average,Full Bar,Yes,No,No,,Yes,Yes,,2,
old-german-ann-arbor,Old German,['german'],42.281208,-83.7496338,MI,"500 S State St, Ann Arbor, MI 48109",861.8595961548,3.5,32,False,No,No,Yes,Yes,,,,Yes,,No,Yes,Casual,Casual,Loud,Full Bar,No,Free,Yes,,Yes,No,,2,
la-marsa-ann-arbor,La Marsa,['mediterranean'],42.279255,-83.74044,MI,"500 S State St, Ann Arbor, MI 48109",343.0854551286,3,77,False,Yes,Yes,Yes,Yes,,Lunch,Street,Yes,,Yes,Yes,Casual,Casual,Average,No,No,Free,No,,Yes,Yes,,2,
shalimar-restaurant-ann-arbor-2,Shalimar Restaurant,['indpak'],42.2793012857,-83.7485553324,MI,"500 S State St, Ann Arbor, MI 48109",677.6187572217,4,198,False,Yes,No,Yes,Yes,,Dinner,Street,Yes,Yes,Yes,Yes,Casual,Casual,Average,Full Bar,Yes,No,No,,Yes,Yes,,2,
university-cafe-ann-arbor,University Cafe,"['korean', 'cafes']",42.274246,-83.734344,MI,"500 S State St, Ann Arbor, MI 48109",614.7178607095,3.5,44,False,No,No,Yes,Yes,,Lunch,Street,,No,Yes,Yes,Casual,,Average,No,Yes,Free,Yes,,No,No,,1,
pizza-bobs-ann-arbor,Pizza Bob's,['pizza'],42.2713051,-83.7407913,MI,"500 S State St, Ann Arbor, MI 48109",532.9327654525,4,29,False,No,Yes,Yes,Yes,,"Lunch, Dinner",Street,,No,Yes,No,Casual,"Touristy, Upscale",Very Loud,No,No,Paid,No,,No,No,,1,
hunter-house-hamburgers-ann-arbor,Hunter House Hamburgers,"['burgers', 'tradamerican']",42.278045,-83.741569,MI,"500 S State St, Ann Arbor, MI 48109",202.1086648488,3.5,37,False,No,Yes,Yes,Yes,,Dessert,"Garage, Street",Yes,,Yes,Yes,Casual,Casual,Average,No,No,No,Yes,,No,Yes,No,1,
potbelly-sandwich-shop-ann-arbor-3,Potbelly Sandwich Shop,"['sandwiches', 'hotdogs', 'delis']",42.2792391,-83.7409542,MI,"500 S State St, Ann Arbor, MI 48109",335.0460539931,4,37,False,No,No,Yes,Yes,,Lunch,Street,Yes,Yes,Yes,Yes,Casual,Casual,Average,No,Yes,Free,No,,No,Yes,No,1,
sadako-japanese-restaurant-ann-arbor,Sadako Japanese Restaurant,"['japanese', 'sushi']",42.2750546783,-83.7326565385,MI,"500 S State St, Ann Arbor, MI 48109",734.0113906036,3.5,148,False,Yes,Yes,Yes,Yes,,Lunch,Street,Yes,Yes,Yes,Yes,Casual,Casual,Average,Beer & Wine Only,No,No,No,,Yes,Yes,,2,
damas-restaurant-ann-arbor,Damas Restaurant,['mediterranean'],42.2533198,-83.7498836,MI,"500 S State St, Ann Arbor, MI 48109",2644.1845826668,4,29,False,No,Yes,Yes,Yes,,Lunch,Private Lot,Yes,Yes,Yes,Yes,Casual,Casual,Quiet,No,No,Free,Yes,,Yes,Yes,,1,
syrian-cuisine-and-exotic-bakeries-ann-arbor,Syrian Cuisine & Exotic Bakeries,"['mideastern', 'delis', 'bakeries']",42.2988497184,-83.7210770205,MI,"500 S State St, Ann Arbor, MI 48109",3015.3249465299,4,80,False,No,No,Yes,Yes,,Lunch,Private Lot,Yes,Yes,Yes,Yes,Casual,Casual,Quiet,No,Yes,Free,No,,No,Yes,,1,
burgerfi-ann-arbor,BURGERFI,"['burgers', 'hotdog', 'tradamerican']",42.275114,-83.733294,MI,"500 S State St, Ann Arbor, MI 48109",671.2683500958,3,51,False,No,No,Yes,Yes,,Late Night,Garage,Yes,,Yes,Yes,Casual,Casual,Average,Full Bar,Yes,Free,Yes,,No,Yes,No,2,
bells-diner-ann-arbor,Bell's Diner,"['diners', 'breakfast_brunch', 'korean']",42.2734379768,-83.7762947381,MI,"500 S State St, Ann Arbor, MI 48109",2895.880775954,4,81,False,No,No,Yes,Yes,,"Breakfast, Brunch",Private Lot,Yes,No,Yes,Yes,Casual,Casual,Average,No,No,No,No,,Yes,No,,1,
tk-wu-ann-arbor,TK Wu,['chinese'],42.279125,-83.742516,MI,"500 S State St, Ann Arbor, MI 48109",357.3010128669,3,98,False,Yes,Yes,Yes,Yes,,"Lunch, Dinner",Street,Yes,Yes,Yes,Yes,Casual,Casual,Average,No,No,No,No,,Yes,No,,2,
juicy-kitchen-ann-arbor-3,Juicy Kitchen,"['food', 'breakfast_brunch', 'gluten_free']",42.2959213,-83.7808685,MI,"500 S State St, Ann Arbor, MI 48109",3871.6983867884,4.5,63,False,Yes,No,Yes,Yes,,Brunch,Private Lot,Yes,Yes,Yes,No,Casual,Casual,Average,No,Yes,Free,No,Yes,No,Yes,,2,
dimos-deli-and-donuts-ann-arbor,Dimo's Deli and Donuts,"['delis', 'donuts']",42.271019,-83.7739105,MI,"500 S State St, Ann Arbor, MI 48109",2738.0557458714,4.5,65,False,No,No,Yes,Yes,,Breakfast,Private Lot,Yes,Yes,Yes,Yes,Casual,Casual,Average,No,No,No,Yes,,No,Yes,,1,
buffalo-wild-wings-ann-arbor,Buffalo Wild Wings,"['sportsbars', 'tradamerican', 'chicken_wings']",42.2800598,-83.7407074,MI,"500 S State St, Ann Arbor, MI 48109",433.4247900789,3.5,63,False,No,No,Yes,Yes,,Lunch,Street,Yes,,Yes,Yes,Casual,Casual,Very Loud,Full Bar,No,Free,Yes,,Yes,Yes,,2,
foods-of-india-ann-arbor,Foods of India,"['ethnicmarkets', 'indpak']",42.2904096544,-83.7369628251,MI,"500 S State St, Ann Arbor, MI 48109",1574.7094428935,4,53,False,No,Yes,Yes,Yes,,"Lunch, Dinner",Private Lot,,Yes,Yes,No,Casual,Divey,Quiet,No,No,Free,Yes,,No,,,1,
habana-ann-arbor,Habana,"['bars', 'cafes']",42.279743,-83.748978,MI,"500 S State St, Ann Arbor, MI 48109",741.6584555721,3.5,36,False,Yes,No,Yes,Yes,,Late Night,Street,Yes,,No,Yes,Casual,Trendy,Very Loud,Full Bar,No,Free,Yes,,Yes,Yes,,2,
the-songbird-cafe-ann-arbor,The Songbird Cafe,"['cafes', 'sandwiches', 'coffee']",42.3026619,-83.7068176,MI,"500 S State St, Ann Arbor, MI 48109",4056.8832642128,4.5,138,False,No,No,Yes,Yes,,Lunch,Private Lot,Yes,,Yes,Yes,Casual,Casual,Average,No,No,Free,No,,No,Yes,,2,
grillcheezerie-sandwich-shoppe-ann-arbor,Grillcheezerie Sandwich Shoppe,['sandwiches'],42.2706145886,-83.7401420486,MI,"500 S State St, Ann Arbor, MI 48109",632.5846827622,3.5,10,False,No,Yes,Yes,Yes,,,,Yes,,Yes,Yes,Casual,,,No,No,,No,,,Yes,,1,
conor-o-neills-ann-arbor-2,Conor O'Neill's,"['irish', 'pubs']",42.278808,-83.749031,MI,"500 S State St, Ann Arbor, MI 48109",696.3409637822,3.5,146,False,Yes,No,Yes,Yes,,Dinner,Street,Yes,Yes,No,Yes,Casual,Casual,Very Loud,Full Bar,Yes,No,Yes,,Yes,,,2,
pita-king-ann-arbor,Pita King,"['mediterranean', 'mideastern']",42.2594066709,-83.7123039365,MI,"500 S State St, Ann Arbor, MI 48109",2986.586691653,4.5,11,False,No,Yes,Yes,Yes,,,"Street, Private Lot",Yes,Yes,Yes,Yes,Casual,,Average,No,No,Free,Yes,,No,Yes,,1,
zingermans-events-on-fourth-ann-arbor-charter-township,Zingerman's Events on Fourth,['restaurants'],42.277309,-83.74585,MI,"500 S State St, Ann Arbor, MI 48109",1024.3353551151,5,5,False,Yes,Yes,No,,,,,,,No,Yes,Dressy,,,,,,,,,Yes,,,
cottage-inn-pizza-ann-arbor,Cottage Inn Pizza,['pizza'],42.272003,-83.742134,MI,"500 S State St, Ann Arbor, MI 48109",477.7118737846,3.5,37,False,No,Yes,Yes,Yes,,"Lunch, Dinner",Private Lot,,Yes,Yes,Yes,Casual,Casual,Average,No,No,No,No,,No,Yes,,1,
south-u-pizza-ann-arbor,South U Pizza,['pizza'],42.274814,-83.735343,MI,"500 S State St, Ann Arbor, MI 48109",514.4742385049,4,33,False,No,Yes,Yes,Yes,,Late Night,Street,Yes,Yes,Yes,Yes,Casual,,Quiet,No,Yes,Free,No,,No,Yes,,1,
el-harissa-market-cafe-ann-arbor,El Harissa Market Cafe,"['mediterranean', 'african']",42.2959747,-83.7808685,MI,"500 S State St, Ann Arbor, MI 48109",3864.7354997093,4.5,37,False,No,No,Yes,Yes,,"Lunch, Dinner",Private Lot,Yes,,Yes,Yes,Casual,Casual,Quiet,No,Yes,No,No,,No,Yes,,2,
izzys-hoagie-shop-ann-arbor,Izzy's Hoagie Shop,['sandwiches'],42.2697716,-83.772583,MI,"500 S State St, Ann Arbor, MI 48109",2678.6296327333,4,30,False,No,No,Yes,Yes,,Lunch,Private Lot,Yes,Yes,Yes,Yes,Casual,Casual,Average,No,No,No,Yes,,No,Yes,,1,
krazy-jims-blimpy-burger-ann-arbor-3,Krazy Jim's Blimpy Burger,['burgers'],42.2794374079,-83.7499011308,MI,"500 S State St, Ann Arbor, MI 48109",790.6577866452,3,39,False,No,No,Yes,Yes,,Lunch,Street,Yes,,Yes,Yes,Casual,Casual,Average,No,Yes,No,No,,No,Yes,No,1,
eata-pita-ann-arbor-3,Eata Pita,"['mediterranean', 'mideastern']",42.2776932816,-83.7478572875,MI,"500 S State St, Ann Arbor, MI 48109",562.4404080582,4.5,5,False,Yes,Yes,Yes,Yes,,,,Yes,,Yes,Yes,Casual,,Quiet,No,Yes,No,Yes,,No,Yes,,1,
asian-legend-ann-arbor,Asian Legend,"['taiwanese', 'chinese']",42.2776833,-83.7423172,MI,"500 S State St, Ann Arbor, MI 48109",181.247235312,3,104,False,Yes,Yes,Yes,Yes,,Lunch,Street,Yes,Yes,Yes,Yes,Casual,Casual,Average,No,No,No,No,,Yes,No,,2,
jamaican-jerk-pit-ann-arbor,Jamaican Jerk Pit,['caribbean'],42.2793328017,-83.7396799028,MI,"500 S State St, Ann Arbor, MI 48109",342.3686833445,3.5,52,False,No,No,Yes,Yes,,Lunch,Street,Yes,Yes,Yes,No,Casual,Casual,Average,No,Yes,,Yes,,Yes,Yes,,1,
bennys-family-dining-ann-arbor,Benny's Family Dining,"['diners', 'tradamerican']",42.258514,-83.73819,MI,"500 S State St, Ann Arbor, MI 48109",1983.4828553851,4,52,False,No,No,Yes,Yes,,Breakfast,Private Lot,No,Yes,Yes,Yes,Casual,Casual,Loud,No,No,No,No,,Yes,No,,1,
cafe-felix-ann-arbor,Cafe Felix,"['french', 'brasseries']",42.2802832,-83.7485633,MI,"500 S State St, Ann Arbor, MI 48109",747.2919158236,2.5,167,False,Yes,Yes,Yes,Yes,,Dinner,Street,Yes,Yes,No,Yes,Casual,Romantic,Average,Full Bar,Yes,Free,Yes,Yes,Yes,Yes,,2,
sottinis-sub-shop-ann-arbor,Sottini's Sub Shop,['sandwiches'],42.2802391,-83.7472076,MI,"500 S State St, Ann Arbor, MI 48109",659.3838333099,3,33,False,No,Yes,Yes,Yes,,Lunch,Street,Yes,,Yes,No,Casual,Casual,Average,No,Yes,No,Yes,,No,Yes,,1,
teriyaki-time-ann-arbor,Teriyaki Time,"['japanese', 'korean']",42.283676,-83.746086,MI,"500 S State St, Ann Arbor, MI 48109",914.4463599521,3.5,33,False,No,No,Yes,Yes,,Lunch,Street,Yes,Yes,Yes,No,Casual,,Quiet,No,Yes,No,Yes,,No,No,,1,
pancheros-mexican-grill-ann-arbor,Panchero's Mexican Grill,['mexican'],42.274696,-83.733917,MI,"500 S State St, Ann Arbor, MI 48109",631.4692402083,3.5,65,False,No,No,Yes,Yes,,"Lunch, Late Night",Street,Yes,Yes,Yes,Yes,Casual,Casual,Average,No,No,No,No,,No,,,1,
zamaan-cafe-ann-arbor-2,Zamaan Cafe,['mediterranean'],42.2445919599,-83.7583239536,MI,"500 S State St, Ann Arbor, MI 48109",3787.1496577473,4,53,False,No,Yes,Yes,Yes,,Lunch,Private Lot,No,,Yes,Yes,Casual,Casual,Quiet,No,No,,No,,Yes,No,,1,
nagomi-sushi-and-noodle-ann-arbor,Nagomi Sushi & Noodle,"['japanese', 'sushi']",42.2980023317,-83.7229365327,MI,"500 S State St, Ann Arbor, MI 48109",2853.3284809702,3.5,98,False,Yes,No,Yes,Yes,,Lunch,Private Lot,Yes,Yes,Yes,Yes,Casual,Casual,Quiet,Full Bar,No,Free,Yes,No,Yes,Yes,,2,
saigon-garden-ann-arbor,Saigon Garden,"['chinese', 'vietnamese']",42.274776,-83.733429,MI,"500 S State St, Ann Arbor, MI 48109",677.277562245,3,59,False,Yes,Yes,Yes,Yes,,Lunch,"Garage, Street",Yes,Yes,Yes,Yes,Casual,Casual,Average,No,No,No,Yes,,Yes,No,,2,
ama-bistro-ann-arbor,Ama Bistro,"['breakfast_brunch', 'newamerican', 'burgers']",42.2798948508,-83.7406850606,MI,"500 S State St, Ann Arbor, MI 48109",409.9191729149,3,21,False,Yes,Yes,Yes,Yes,,"Breakfast, Brunch",Street,Yes,,Yes,Yes,Casual,Casual,Average,No,No,Free,Yes,,Yes,Yes,No,2,
brown-jug-ann-arbor,Brown Jug,"['pizza', 'tradamerican', 'bars']",42.274841,-83.734283,MI,"500 S State St, Ann Arbor, MI 48109",596.3315134466,3.5,78,False,No,No,Yes,Yes,,Late Night,Street,Yes,Yes,No,Yes,Casual,Casual,Very Loud,Full Bar,Yes,Free,Yes,,Yes,No,,1,
the-heidelberg-restaurant-ann-arbor,The Heidelberg Restaurant,"['german', 'bars', 'danceclubs']",42.2829018,-83.7488098,MI,"500 S State St, Ann Arbor, MI 48109",948.6222211396,3,72,False,Yes,No,Yes,Yes,,Late Night,"Garage, Street",Yes,Yes,No,Yes,Casual,Casual,Very Loud,Full Bar,No,No,Yes,,Yes,No,,2,
ground-floor-cafe-ann-arbor,Ground Floor Cafe,"['coffee', 'cafes']",42.2839508,-83.7472916,MI,"500 S State St, Ann Arbor, MI 48109",990.4284247146,4.5,4,False,No,No,No,Yes,No,,Street,Yes,Yes,Yes,No,Casual,,,Beer & Wine Only,Yes,Free,No,,Yes,No,,1,
mia-zas-italian-cafe-ann-arbor,Mia Za's Italian Cafe,"['italian', 'pizza']",42.2744598,-83.7353592,MI,"500 S State St, Ann Arbor, MI 48109",527.0620019937,3,39,False,No,No,Yes,Yes,,Lunch,Street,Yes,No,Yes,Yes,Casual,Casual,Average,No,No,No,Yes,,No,No,,1,
franks-restaurant-ann-arbor,Frank's Restaurant,"['diners', 'breakfast_brunch']",42.2787666,-83.7422104,MI,"500 S State St, Ann Arbor, MI 48109",247.8934432492,3.5,59,False,No,No,Yes,Yes,,Breakfast,Street,Yes,No,Yes,Yes,Casual,Casual,Quiet,No,No,No,No,,Yes,No,,1,
the-melting-pot-ann-arbor,The Melting Pot,['fondue'],42.2792053223,-83.7482452393,MI,"500 S State St, Ann Arbor, MI 48109",659.0112436956,3,56,False,Yes,No,No,Yes,,Dessert,"Garage, Street",Yes,Yes,Yes,Yes,Casual,Intimate,Average,Full Bar,Yes,No,No,,Yes,No,,3,
tios-restaurant-ann-arbor-2,Tio's Restaurant,['mexican'],42.2798691,-83.7435684,MI,"500 S State St, Ann Arbor, MI 48109",419.6862161098,3,165,False,Yes,Yes,Yes,Yes,,"Lunch, Dinner, Late Night",Street,Yes,Yes,Yes,Yes,Casual,Casual,Loud,Full Bar,Yes,Free,Yes,,Yes,Yes,,2,
le-dog-ann-arbor,Le Dog,"['hotdog', 'foodstands']",42.2791901,-83.7490005,MI,"500 S State St, Ann Arbor, MI 48109",695.9311640983,3.5,32,False,No,No,Yes,No,,Lunch,Street,Yes,Yes,Yes,No,Casual,,,No,No,,No,,No,,,1,
quickie-burger-ann-arbor-2,Quickie Burger,"['burgers', 'hotdogs']",42.2716713,-83.7408676,MI,"500 S State St, Ann Arbor, MI 48109",497.2612999476,3,38,False,No,Yes,Yes,Yes,,"Lunch, Dinner, Late Night",Street,Yes,Yes,Yes,Yes,Casual,Casual,Loud,Full Bar,Yes,,Yes,,No,No,No,1,
amers-delicatessen-ann-arbor,Amer's Delicatessen,"['coffee', 'vegetarian', 'sandwiches']",42.2788696,-83.7411575,MI,"500 S State St, Ann Arbor, MI 48109",293.0066201155,3.5,90,False,No,No,Yes,Yes,,Lunch,Street,Yes,Yes,Yes,Yes,Casual,Casual,Average,No,Yes,Free,No,,No,Yes,,1,
dibellas-old-fashion-submarines-ann-arbor,DiBella's Old Fashion Submarines,['sandwiches'],42.2461472,-83.7579575,MI,"500 S State St, Ann Arbor, MI 48109",3496.5291348407,4,120,False,No,No,Yes,Yes,,Lunch,Private Lot,Yes,No,Yes,Yes,Casual,Casual,Average,No,No,Free,No,,No,Yes,,1,
ali-babas-ann-arbor,Ali Baba's,"['mideastern', 'mediterranean']",42.271667,-83.74115,MI,"500 S State St, Ann Arbor, MI 48109",509.9029574386,3,59,False,No,Yes,Yes,Yes,,"Lunch, Dinner",Private Lot,Yes,,Yes,Yes,Casual,Casual,Quiet,No,Yes,,No,,Yes,,,1,
knights-steak-house-ann-arbor,Knight's Steak House,"['steak', 'tradamerican']",42.285373,-83.778099,MI,"500 S State St, Ann Arbor, MI 48109",3181.7145487981,3.5,121,False,Yes,No,Yes,Yes,,Dinner,Private Lot,Yes,Yes,Yes,Yes,Casual,Casual,Loud,Full Bar,Yes,No,Yes,,Yes,,,2,
mennas-joint-ann-arbor,Menna's Joint,['tradamerican'],42.2778377,-83.7446577,MI,"500 S State St, Ann Arbor, MI 48109",327.8817659639,3,21,False,No,Yes,Yes,Yes,,,Street,Yes,,No,No,Casual,Divey,Average,No,No,No,Yes,,No,No,,1,
ayaka-ann-arbor,Ayaka,"['japanese', 'sushi']",42.2750546783,-83.7343986332,MI,"500 S State St, Ann Arbor, MI 48109",586.4015415457,3,49,False,No,No,Yes,Yes,,"Lunch, Dinner",Street,Yes,Yes,Yes,No,Casual,Trendy,Quiet,No,No,,No,,Yes,No,,2,
jimmy-johns-ann-arbor,Jimmy John's,['sandwiches'],42.271629,-83.741745,MI,"500 S State St, Ann Arbor, MI 48109",508.8877714526,3,26,False,No,Yes,Yes,Yes,,Lunch,,,Yes,Yes,Yes,Casual,,,No,No,,No,,No,,,1,
great-plains-burger-company-ann-arbor-2,Great Plains Burger Company,['burgers'],42.2979982942,-83.7201225758,MI,"500 S State St, Ann Arbor, MI 48109",3027.5280216785,3.5,91,False,No,No,Yes,Yes,,Lunch,Private Lot,Yes,Yes,Yes,Yes,Casual,Casual,Average,No,No,Free,Yes,,No,No,No,1,
rays-red-hots-ann-arbor,Ray's Red Hots,"['hotdog', 'foodstands']",42.273903089,-83.7356832255,MI,"500 S State St, Ann Arbor, MI 48109",530.7749221127,3,31,False,No,Yes,Yes,Yes,,Lunch,Street,Yes,No,Yes,Yes,Casual,,Average,No,Yes,No,No,,No,Yes,,1,
the-original-cottage-inn-ann-arbor,The Original Cottage Inn,"['pizza', 'italian']",42.277641,-83.742668,MI,"500 S State St, Ann Arbor, MI 48109",191.9666923499,3.5,76,False,Yes,Yes,Yes,Yes,,"Lunch, Dinner","Garage, Street",Yes,Yes,Yes,Yes,Casual,Casual,Average,Full Bar,Yes,Free,Yes,No,Yes,Yes,,2,
pita-pit-ann-arbor-2,Pita Pit,"['vegan', 'vegetarian', 'hotdogs']",42.2744598,-83.7353592,MI,"500 S State St, Ann Arbor, MI 48109",527.0620019937,3.5,19,False,No,Yes,Yes,Yes,,Lunch,Street,,,Yes,Yes,Casual,Casual,Quiet,No,No,Free,Yes,,No,No,No,1,
ayses-turkish-cafe-ann-arbor,Ayse's Turkish Cafe,"['turkish', 'gluten_free']",42.2990031467,-83.7220512634,MI,"500 S State St, Ann Arbor, MI 48109",2986.2878707779,4,35,False,No,No,Yes,Yes,,"Lunch, Dinner",Private Lot,Yes,Yes,Yes,Yes,Casual,,Quiet,No,No,,No,,Yes,Yes,,2,
marnee-thai-restaurant-ann-arbor,Marnee Thai Restaurant,['thai'],42.277198,-83.749123,MI,"500 S State St, Ann Arbor, MI 48109",651.591811977,3,126,False,Yes,No,No,Yes,,"Lunch, Dinner","Garage, Street, Validated",Yes,Yes,Yes,Yes,Casual,Casual,Average,Beer & Wine Only,Yes,Free,No,,Yes,Yes,,2,
frasers-pub-ann-arbor,Fraser's Pub,"['newamerican', 'pubs']",42.2571487,-83.7268982,MI,"500 S State St, Ann Arbor, MI 48109",2430.4271584146,3.5,46,False,No,No,Yes,Yes,,"Lunch, Late Night",Private Lot,Yes,Yes,No,Yes,Casual,Divey,Average,Full Bar,Yes,Free,Yes,,Yes,No,,1,
blue-leprechaun-ann-arbor,Blue Leprechaun,"['bars', 'irish']",42.274776,-83.733429,MI,"500 S State St, Ann Arbor, MI 48109",610.1494536021,3.5,52,False,No,No,Yes,Yes,,Late Night,Street,Yes,Yes,No,Yes,Casual,Casual,Loud,Full Bar,No,No,Yes,,Yes,No,,2,
silvios-organic-pizza-ann-arbor,Silvio's Organic Pizza,"['pizza', 'italian', 'gluten_free']",42.278915,-83.740021,MI,"500 S State St, Ann Arbor, MI 48109",316.083802442,3.5,170,False,Yes,Yes,Yes,Yes,,"Lunch, Dinner",Street,Yes,Yes,Yes,Yes,Casual,Casual,Average,Beer & Wine Only,Yes,Free,No,No,Yes,Yes,,2,
miki-japanese-restaurant-ann-arbor,Miki Japanese Restaurant,"['japanese', 'sushi']",42.281311,-83.7511444,MI,"500 S State St, Ann Arbor, MI 48109",983.6259435233,3.5,110,False,Yes,Yes,Yes,Yes,,Dinner,Street,Yes,Yes,Yes,Yes,Casual,Casual,Average,Full Bar,Yes,Free,Yes,No,Yes,Yes,,2,
revive-replenish-ann-arbor,Revive + Replenish,"['sandwiches', 'grocery']",42.274181366,-83.7354049683,MI,"500 S State St, Ann Arbor, MI 48109",490.1385341811,3,31,False,No,No,Yes,Yes,,Lunch,Street,,,No,No,Casual,,Loud,No,Yes,Free,No,,No,No,,1,
curry-on-ann-arbor,Curry On,"['indpak', 'gluten_free']",42.302647,-83.706594,MI,"500 S State St, Ann Arbor, MI 48109",4096.1472627405,4,71,False,No,No,Yes,Yes,,Lunch,Private Lot,Yes,No,Yes,Yes,Casual,Casual,Average,No,No,Free,No,,No,No,,1,
enorme-johnsons-gourmet-street-cuisine-ann-arbor,Enorme Johnson's Gourmet Street Cuisine,['hotdog'],42.27923,-83.742303,MI,"500 S State St, Ann Arbor, MI 48109",342.6271672146,5,2,False,,,,,,,,,,,,,,,,,,,,,,,,
rub-bbq-pub-ann-arbor,Rub BBQ Pub,"['bbq', 'pubs']",42.271122,-83.7410812,MI,"500 S State St, Ann Arbor, MI 48109",596.8851551226,2.5,55,False,Yes,No,Yes,Yes,,"Lunch, Dinner, Late Night",Street,,,No,Yes,Casual,Casual,Loud,Full Bar,No,Free,Yes,,Yes,Yes,,2,
good-time-charleys-ann-arbor,Good Time Charleys,"['newamerican', 'pubs']",42.2747917,-83.7348328,MI,"500 S State St, Ann Arbor, MI 48109",556.5071535274,3.5,96,False,Yes,No,Yes,Yes,,Late Night,Street,Yes,Yes,No,Yes,Casual,Casual,Very Loud,Full Bar,Yes,No,Yes,,Yes,No,,2,
noodles-and-company-ann-arbor-2,Noodles & Company,"['asianfusion', 'comfortfood', 'italian']",42.2786293,-83.7411499,MI,"500 S State St, Ann Arbor, MI 48109",266.160431064,3,38,False,No,Yes,Yes,Yes,,"Lunch, Dinner",Street,,Yes,Yes,Yes,Casual,,Average,No,No,No,No,,Yes,Yes,,1,
the-earle-ann-arbor,The Earle,"['wine_bars', 'french', 'italian']",42.2804539651,-83.7489107251,MI,"500 S State St, Ann Arbor, MI 48109",834.831556002,3.5,172,False,Yes,No,No,Yes,No,Dinner,"Garage, Street",Yes,Yes,No,Yes,Dressy,Intimate,Average,Full Bar,Yes,Free,No,No,Yes,No,,3,
san-fu-oriental-cuisine-ann-arbor,San Fu Oriental Cuisine,['chinese'],42.2731705,-83.7490692,MI,"500 S State St, Ann Arbor, MI 48109",725.2418723388,3,27,False,No,Yes,Yes,Yes,,Dinner,,Yes,,Yes,No,Casual,,Quiet,No,No,No,No,,No,Yes,,1,
blue-nile-of-ann-arbor-ann-arbor,Blue Nile of Ann Arbor,['ethiopian'],42.2805519,-83.7470093,MI,"500 S State St, Ann Arbor, MI 48109",631.0960921717,3.5,124,False,Yes,No,No,Yes,,Dinner,Street,Yes,Yes,Yes,Yes,Casual,Intimate,Average,Full Bar,Yes,No,No,,Yes,Yes,,2,
brueggers-bagels-ann-arbor-3,Bruegger's Bagels,"['bagels', 'breakfast_brunch', 'sandwiches']",42.278831,-83.740211,MI,"500 S State St, Ann Arbor, MI 48109",289.4668154386,3,24,False,No,No,Yes,Yes,,Breakfast,Street,Yes,Yes,Yes,Yes,Casual,,Average,No,No,Free,No,,No,Yes,,1,
village-kitchen-ann-arbor,Village Kitchen,['tradamerican'],42.2840723185,-83.7813594447,MI,"500 S State St, Ann Arbor, MI 48109",3408.0404701755,4,28,False,No,No,Yes,Yes,,Breakfast,Private Lot,Yes,,Yes,Yes,Casual,,Average,No,No,,No,,Yes,,,1,
chia-shiang-restaurant-ann-arbor-2,Chia Shiang Restaurant,['chinese'],42.2571907,-83.7278519,MI,"500 S State St, Ann Arbor, MI 48109",2389.4376606237,3,81,False,Yes,No,Yes,Yes,,Lunch,Private Lot,Yes,Yes,Yes,Yes,Casual,Casual,Quiet,No,No,No,No,,Yes,No,,2,
the-lunch-room-bakery-and-cafe-ann-arbor-2,The Lunch Room - Bakery & Cafe,"['vegan', 'bakeries', 'cafes']",42.285274,-83.717193,MI,"500 S State St, Ann Arbor, MI 48109",2225.5516226382,5,5,False,No,No,Yes,Yes,,"Breakfast, Brunch, Lunch",Private Lot,Yes,Yes,Yes,Yes,Casual,Casual,Quiet,No,Yes,Free,No,No,No,Yes,,1,
amers-delicatessen-ann-arbor-2,Amer's Delicatessen,"['delis', 'sandwiches']",42.274509,-83.734283,MI,"500 S State St, Ann Arbor, MI 48109",609.3182350773,3,15,False,No,No,Yes,Yes,,,,Yes,,Yes,Yes,Casual,,Average,No,Yes,Free,No,,,,,2,
bds-mongolian-grill-ann-arbor-6,bd's Mongolian Grill,['mongolian'],42.2803497314,-83.7489471436,MI,"500 S State St, Ann Arbor, MI 48109",776.9480104359,3.5,92,False,Yes,No,Yes,Yes,,"Lunch, Dinner",Street,Yes,Yes,Yes,Yes,Casual,Casual,Average,Full Bar,Yes,Free,Yes,,Yes,Yes,,2,
angelos-on-the-side-ann-arbor,Angelo's On The Side,"['newamerican', 'breakfast_brunch']",42.2831194103,-83.7351355702,MI,"500 S State St, Ann Arbor, MI 48109",987.3363280331,3.5,18,False,No,Yes,Yes,Yes,,,,,,Yes,No,Casual,,Average,No,No,,No,,Yes,,,2,
tony-saccos-coal-oven-pizza-ann-arbor,Tony Sacco's Coal Oven Pizza,['pizza'],42.2463634948,-83.7561135357,MI,"500 S State St, Ann Arbor, MI 48109",3538.1706144391,4,43,False,No,No,Yes,Yes,,"Lunch, Dinner",Private Lot,Yes,,Yes,Yes,Casual,Casual,Average,Full Bar,Yes,No,Yes,,Yes,No,,2,
seva-restaurant-ann-arbor-2,Seva Restaurant,"['vegetarian', 'vegan']",42.2810014,-83.7822946,MI,"500 S State St, Ann Arbor, MI 48109",3413.181873918,3.5,43,False,Yes,No,Yes,Yes,,"Lunch, Dinner",Street,Yes,,Yes,Yes,Casual,Casual,Average,Full Bar,No,No,No,,Yes,,,2,
anthonys-gourmet-pizza-ann-arbor-3,Anthony's Gourmet Pizza,['pizza'],42.2959328,-83.7808685,MI,"500 S State St, Ann Arbor, MI 48109",3862.1015806665,4.5,25,False,No,Yes,Yes,Yes,,"Lunch, Dinner",,No,,Yes,Yes,Casual,Divey,Average,No,No,,No,,Yes,Yes,,2,
bigalora-wood-fired-cucina-ann-arbor,Bigalora Wood Fired Cucina,"['italian', 'pizza']",42.2573318,-83.699295,MI,"500 S State St, Ann Arbor, MI 48109",4152.5864053704,3.5,106,False,Yes,No,Yes,Yes,,Lunch,Private Lot,Yes,,Yes,Yes,Casual,Trendy,Loud,Full Bar,Yes,No,Yes,,Yes,,,2,
seoul-garden-ann-arbor,Seoul Garden,"['sushi', 'korean', 'diners']",42.242302,-83.734138,MI,"500 S State St, Ann Arbor, MI 48109",3831.2439394289,3.5,154,False,Yes,No,Yes,Yes,,Dinner,Private Lot,No,Yes,Yes,Yes,Casual,Casual,Average,Full Bar,No,No,Yes,,Yes,Yes,,2,
pizza-pino-ann-arbor,Pizza Pino,['pizza'],42.2793999,-83.7508163,MI,"500 S State St, Ann Arbor, MI 48109",847.7697281379,2.5,44,False,No,Yes,Yes,Yes,,"Lunch, Dinner, Late Night",Private Lot,Yes,Yes,Yes,Yes,Casual,,Quiet,No,Yes,Free,Yes,,No,,,2,
chipotle-mexican-grill-ann-arbor-3,Chipotle Mexican Grill,"['hotdogs', 'mexican']",42.2793197632,-83.7404403687,MI,"500 S State St, Ann Arbor, MI 48109",349.6697844142,3.5,47,False,No,No,Yes,Yes,,Lunch,Street,Yes,Yes,Yes,Yes,Casual,,Loud,No,No,,No,,No,Yes,No,1,
mediterrano-ann-arbor,Mediterrano,['mediterranean'],42.2449188,-83.7393951,MI,"500 S State St, Ann Arbor, MI 48109",3441.9048998523,3.5,64,False,Yes,No,Yes,Yes,,Dinner,Private Lot,Yes,Yes,No,Yes,Casual,Casual,Average,Full Bar,Yes,No,No,,Yes,Yes,,2,
hillel-café-and-coffee-bar-ann-arbor,Hillel Café & Coffee Bar,"['kosher', 'coffee', 'newamerican']",42.272766,-83.730194,MI,"500 S State St, Ann Arbor, MI 48109",995.8864856918,4.5,4,False,Yes,No,Yes,Yes,,,"Street, Private Lot",,Yes,Yes,Yes,Casual,,Average,No,No,Free,No,No,No,Yes,,1,
marcos-pizza-ann-arbor-4,Marco's Pizza,['pizza'],42.2985481471,-83.7228711694,MI,"500 S State St, Ann Arbor, MI 48109",2906.1977722094,4.5,11,False,No,Yes,Yes,Yes,,,,,,Yes,Yes,Casual,,,,No,,,,No,,,2,
gourmet-garden-ann-arbor,Gourmet Garden,['chinese'],42.2751007,-83.7783966,MI,"500 S State St, Ann Arbor, MI 48109",3011.9920979896,3.5,45,False,Yes,Yes,Yes,Yes,,Lunch,Private Lot,Yes,Yes,Yes,Yes,Casual,Casual,Quiet,Full Bar,No,No,No,,Yes,,,2,
the-quarter-bistro-and-tavern-ann-arbor,The Quarter Bistro & Tavern,"['cajun', 'seafood']",42.278389,-83.780907,MI,"500 S State St, Ann Arbor, MI 48109",3266.3498609805,3,83,False,Yes,No,Yes,Yes,,"Brunch, Dinner",Private Lot,No,Yes,No,Yes,Casual,Classy,Average,Full Bar,No,No,Yes,,Yes,Yes,,2,
argieros-italian-restaurant-ann-arbor,Argiero's Italian Restaurant,"['italian', 'pizza']",42.283332,-83.746284,MI,"500 S State St, Ann Arbor, MI 48109",890.2955663061,2.5,37,False,Yes,Yes,Yes,Yes,,"Lunch, Dinner",Street,Yes,Yes,Yes,Yes,Casual,Casual,Quiet,Full Bar,Yes,No,No,,Yes,,,2,
holidays-restaurant-ann-arbor,Holiday's Restaurant,['tradamerican'],42.2723999,-83.7749405,MI,"500 S State St, Ann Arbor, MI 48109",2799.5981786199,3.5,32,False,No,No,Yes,Yes,,Breakfast,Private Lot,Yes,No,Yes,Yes,Casual,Casual,Average,No,No,Free,No,,Yes,Yes,,1,
taco-king-ann-arbor,Taco King,['mexican'],42.2737389,-83.7771988,MI,"500 S State St, Ann Arbor, MI 48109",2966.5319158236,3.5,70,False,No,Yes,Yes,Yes,,Lunch,Private Lot,Yes,,Yes,Yes,Casual,,Average,No,No,Free,No,,No,,,1,
stars-cafe-ann-arbor,Star's Cafe,['mideastern'],42.2808127105,-83.7817912549,MI,"500 S State St, Ann Arbor, MI 48109",3453.5884821702,4,38,False,No,No,Yes,Yes,,Lunch,Private Lot,,Yes,Yes,No,Casual,Casual,Average,No,No,Free,No,,No,Yes,,1,
elevation-burger-ann-arbor,Elevation Burger,"['burgers', 'vegetarian', 'newamerican']",42.256626,-83.692352,MI,"500 S State St, Ann Arbor, MI 48109",4580.9762311851,4,122,False,No,No,Yes,Yes,,Lunch,Private Lot,Yes,Yes,Yes,Yes,Casual,Casual,Average,No,Yes,Free,No,,No,No,No,1,
bar-louie-ann-arbor-3,Bar Louie,"['bars', 'newamerican']",42.2796442965,-83.7437925341,MI,"500 S State St, Ann Arbor, MI 48109",430.358711286,3,93,False,Yes,No,Yes,Yes,,"Dinner, Late Night",Street,Yes,Yes,No,Yes,Casual,Casual,Loud,Full Bar,Yes,Free,Yes,,Yes,No,,2,
tropical-smoothie-cafe-ann-arbor,Tropical Smoothie Cafe,"['cafes', 'juicebars', 'sandwiches']",42.2794179618,-83.7418410927,MI,"500 S State St, Ann Arbor, MI 48109",350.4779282752,3.5,15,False,No,No,Yes,Yes,,Lunch,,Yes,,Yes,Yes,Casual,,Quiet,No,Yes,,Yes,,No,,,1,
no-thai-ann-arbor-3,No Thai!,['thai'],42.2983879811,-83.7214410632,MI,"500 S State St, Ann Arbor, MI 48109",2955.9879678331,3,52,False,No,Yes,Yes,Yes,,Lunch,Private Lot,Yes,Yes,Yes,Yes,Casual,Casual,Average,No,No,No,No,,No,No,,1,
zingermans-next-door-ann-arbor,Zingerman's Next Door,"['coffee', 'breakfast_brunch', 'bakeries']",42.284592,-83.745071,MI,"500 S State St, Ann Arbor, MI 48109",993.3629818836,3.5,19,False,No,No,Yes,Yes,,Breakfast,,Yes,,Yes,Yes,Casual,,Average,No,Yes,Free,No,,No,Yes,,2,
zola-bistro-ann-arbor,Zola Bistro,['french'],42.2577004,-83.7004718,MI,"500 S State St, Ann Arbor, MI 48109",3942.246501184,3,96,False,Yes,No,Yes,Yes,,Brunch,Private Lot,Yes,,Yes,Yes,Casual,Hipster,Very Loud,Full Bar,Yes,Free,No,,Yes,Yes,,2,
arirang-ann-arbor,Arirang,['korean'],42.2407799,-83.770752,MI,"500 S State St, Ann Arbor, MI 48109",4456.1516913626,4,90,False,No,No,Yes,Yes,,Lunch,Private Lot,Yes,Yes,Yes,Yes,Casual,Casual,Quiet,No,No,No,No,,Yes,,,2,
five-guys-burgers-and-fries-ann-arbor-3,Five Guys Burgers and Fries,"['burgers', 'hotdogs']",42.279025,-83.740792,MI,"500 S State St, Ann Arbor, MI 48109",312.8753063309,3.5,52,False,No,No,Yes,Yes,,"Lunch, Dinner",Private Lot,Yes,Yes,Yes,Yes,Casual,Casual,Very Loud,No,No,No,No,,No,No,No,1,
ahmos-gyros-and-deli-ann-arbor,Ahmo's Gyros & Deli,"['mideastern', 'greek']",42.281574,-83.744148,MI,"500 S State St, Ann Arbor, MI 48109",647.5065098069,3,30,False,No,Yes,Yes,Yes,,Lunch,Private Lot,Yes,Yes,Yes,Yes,Casual,,,No,Yes,,Yes,,No,Yes,,1,
bagger-daves-burger-tavern-ann-arbor,Bagger Dave's Burger Tavern,"['burgers', 'tradamerican']",42.2447774137,-83.757802248,MI,"500 S State St, Ann Arbor, MI 48109",3752.2543277573,3.5,100,False,No,No,Yes,Yes,,"Lunch, Dinner",Private Lot,Yes,Yes,Yes,Yes,Casual,Casual,Average,Full Bar,No,Free,Yes,No,Yes,No,No,2,
cafe-verde-ann-arbor-2,Cafe Verde,['cafes'],42.282871,-83.746803,MI,"500 S State St, Ann Arbor, MI 48109",865.6959033273,3.5,33,False,No,No,Yes,Yes,,,Street,Yes,Yes,Yes,No,,,,,Yes,Free,,,,Yes,,2,
no-thai-ann-arbor-2,No Thai,['thai'],42.282959,-83.746758,MI,"500 S State St, Ann Arbor, MI 48109",841.279071862,3,89,False,No,Yes,Yes,Yes,,"Lunch, Dinner",Street,Yes,Yes,Yes,Yes,Casual,Casual,Average,No,Yes,No,No,,No,No,,1,
don-juan-mexican-bar-and-grill-ann-arbor,Don Juan Mexican Bar & Grill,['mexican'],42.272736,-83.775584,MI,"500 S State St, Ann Arbor, MI 48109",2846.6734407515,3.5,35,False,No,No,Yes,Yes,,Lunch,Private Lot,Yes,,Yes,Yes,Casual,Casual,Average,Full Bar,No,No,Yes,,Yes,Yes,,2,
darcys-cart-ann-arbor,Darcy's Cart,['foodstands'],42.2803459167,-83.7503128052,MI,"500 S State St, Ann Arbor, MI 48109",872.1459618362,4,6,False,,No,No,Yes,,,,,Yes,Yes,Yes,Casual,,,,,No,No,,No,,,1,
cotton-club-ann-arbor,Cotton Club,['tradamerican'],42.2735672,-83.7405472,MI,"500 S State St, Ann Arbor, MI 48109",262.5875336363,5,1,False,,,,,,,,,,,,,,,,,,,,,,,,
tienda-la-libertad-ann-arbor,Tienda La Libertad,"['grocery', 'ethnicmarkets', 'latin']",42.2740807,-83.7772234,MI,"500 S State St, Ann Arbor, MI 48109",2964.4908600436,4,14,False,Yes,Yes,Yes,Yes,,"Lunch, Dinner",Private Lot,,Yes,Yes,No,Casual,,Quiet,No,Yes,Free,No,No,Yes,Yes,,1,
sabor-latino-ann-arbor-3,Sabor Latino,"['mexican', 'latin']",42.2828102,-83.7488098,MI,"500 S State St, Ann Arbor, MI 48109",950.2996235029,3,125,False,Yes,No,Yes,Yes,,Dinner,Street,Yes,Yes,Yes,Yes,Casual,Casual,Average,Full Bar,Yes,No,Yes,,Yes,Yes,,2,
victors-bar-and-restaurant-ann-arbor,Victors Bar & Restaurant,['newamerican'],42.281609,-83.741463,MI,"500 S State St, Ann Arbor, MI 48109",567.8466920419,3.5,7,False,Yes,No,,Yes,,,,,Yes,,Yes,Casual,,,,No,,No,,Yes,,,3,
satchels-bbq-ann-arbor-2,Satchel's  BBQ,"['bbq', 'catering']",42.2579689,-83.6989975,MI,"500 S State St, Ann Arbor, MI 48109",4094.9596424941,3.5,122,False,No,No,Yes,Yes,,"Lunch, Dinner",Private Lot,Yes,Yes,Yes,Yes,Casual,Casual,Average,No,No,No,No,,No,Yes,,2,
tmaz-taqueria-ann-arbor,Tmaz Taqueria,['mexican'],42.2449951,-83.6965942,MI,"500 S State St, Ann Arbor, MI 48109",5104.2037468229,4,200,False,No,No,Yes,Yes,,Lunch,Private Lot,Yes,,Yes,Yes,Casual,Casual,Average,No,Yes,No,No,,Yes,No,,1,
hut-k-ann-arbor,Hut-K,"['indpak', 'vegan', 'vegetarian']",42.2449341,-83.6996689,MI,"500 S State St, Ann Arbor, MI 48109",4929.1448545473,4.5,96,False,Yes,Yes,Yes,Yes,,Lunch,Private Lot,Yes,Yes,Yes,Yes,Casual,Casual,Quiet,No,No,Free,No,,Yes,Yes,,1,
p-f-changs-ann-arbor,P.F. Chang's,"['asianfusion', 'chinese']",42.2384109,-83.743515,MI,"500 S State St, Ann Arbor, MI 48109",3765.0882831541,3.5,26,False,Yes,No,Yes,Yes,,Lunch,,No,,Yes,Yes,Casual,Casual,Loud,Full Bar,Yes,No,No,,Yes,Yes,,2,
rush-street-ann-arbor,Rush Street,"['lounges', 'tapas', 'danceclubs']",42.2788696,-83.7488174,MI,"500 S State St, Ann Arbor, MI 48109",708.2100028807,2.5,59,False,No,No,No,Yes,,Late Night,Street,Yes,Yes,No,Yes,Dressy,Upscale,Very Loud,Full Bar,No,Free,Yes,,Yes,No,,2,
cafe-marie-of-ann-arbor-ann-arbor,Cafe Marie of Ann Arbor,"['breakfast_brunch', 'coffee']",42.2983183634,-83.7208554013,MI,"500 S State St, Ann Arbor, MI 48109",2976.5077893982,3,57,False,Yes,No,Yes,Yes,,"Breakfast, Brunch",Private Lot,Yes,Yes,Yes,Yes,Casual,Casual,Quiet,No,Yes,Free,No,,Yes,Yes,,2,
au-bon-pain-ann-arbor,Au Bon Pain,"['bakeries', 'salad', 'sandwiches']",42.2747647,-83.7407982,MI,"500 S State St, Ann Arbor, MI 48109",169.1009239374,3.5,4,False,No,No,Yes,Yes,,,,Yes,,Yes,Yes,Casual,,Average,No,No,Free,Yes,,No,Yes,,1,
hello-faz-pizza-ann-arbor,Hello Faz Pizza,['pizza'],42.27372,-83.777512,MI,"500 S State St, Ann Arbor, MI 48109",2991.367129004,4,44,False,No,Yes,Yes,Yes,,"Lunch, Dinner",Private Lot,Yes,,Yes,Yes,Casual,"Divey, Casual",Average,No,No,No,Yes,,No,Yes,,1,
nicks-original-house-of-pancakes-ann-arbor,Nick's Original House of Pancakes,"['diners', 'breakfast_brunch']",42.2427292,-83.7652969,MI,"500 S State St, Ann Arbor, MI 48109",4216.0718662712,3.5,94,False,No,No,Yes,Yes,,Breakfast,Private Lot,Yes,Yes,Yes,Yes,Casual,Casual,Average,No,No,No,Yes,,Yes,No,,1,
happy-wok-ann-arbor,Happy Wok,"['chinese', 'asianfusion', 'catering']",42.2695808,-83.7723694,MI,"500 S State St, Ann Arbor, MI 48109",2663.9789067517,3,38,False,No,Yes,Yes,Yes,,"Lunch, Dinner",Private Lot,No,Yes,Yes,No,Casual,Casual,Average,No,No,No,No,,Yes,No,,1,
oasis-deli-ann-arbor,Oasis Deli,['delis'],42.2749333084,-83.7355110794,MI,"500 S State St, Ann Arbor, MI 48109",508.4525667895,2.5,28,False,No,Yes,Yes,Yes,,Lunch,Street,Yes,,Yes,Yes,Casual,,Average,No,No,,No,,No,,,1,
ahmo-gyros-and-deli-ann-arbor,Ahmo' Gyros and Deli,"['mediterranean', 'greek']",42.2858941059,-83.7810988428,MI,"500 S State St, Ann Arbor, MI 48109",3444.9395501843,3.5,15,False,No,Yes,Yes,Yes,,Lunch,Private Lot,Yes,,Yes,Yes,Casual,Casual,Average,No,Yes,No,Yes,,No,Yes,,1,
brueggers-bagels-ann-arbor-4,Bruegger's Bagels,"['bagels', 'breakfast_brunch', 'sandwiches']",42.2520842403,-83.7497764081,MI,"500 S State St, Ann Arbor, MI 48109",2639.6110172218,4,10,False,No,No,Yes,Yes,,,,,,Yes,Yes,Casual,,,No,Yes,Free,No,,No,Yes,,1,
glass-house-cafe-ann-arbor,Glass House Cafe,"['breakfast_brunch', 'catering']",42.2804700989,-83.7338045239,MI,"500 S State St, Ann Arbor, MI 48109",776.4184781501,2.5,12,False,Yes,Yes,Yes,Yes,,,Garage,Yes,Yes,No,Yes,Casual,,,,No,Free,No,,Yes,,,2,
diag-pizza-and-subs-ann-arbor,Diag Pizza and Subs,"['pizza', 'sandwiches']",42.2780304,-83.7411194,MI,"500 S State St, Ann Arbor, MI 48109",200.0037046477,3.5,11,False,,,,Yes,,,Street,,Yes,,,,,,,,,,,,,,1,
old-carolina-barbecue-company-ann-arbor-2,Old Carolina Barbecue Company,['bbq'],42.2473571311,-83.758867085,MI,"500 S State St, Ann Arbor, MI 48109",3521.3954179672,2.5,44,False,No,Yes,Yes,Yes,No,Lunch,Private Lot,Yes,Yes,Yes,Yes,Casual,Casual,Average,Beer & Wine Only,Yes,Free,Yes,,No,Yes,,2,
world-of-beer-ann-arbor,World of Beer,"['pubs', 'tradamerican']",42.274586,-83.732827,MI,"500 S State St, Ann Arbor, MI 48109",721.7202175191,3.5,31,False,No,No,No,Yes,,,Garage,Yes,,No,Yes,Casual,Casual,Loud,Beer & Wine Only,Yes,Free,Yes,,Yes,No,,2,
jets-pizza-ann-arbor-charter-township,Jet's Pizza,['pizza'],42.2980841249,-83.7216702104,MI,"500 S State St, Ann Arbor, MI 48109",2923.7346516724,3.5,8,False,,Yes,,,,,,,,,,,,,,No,,,,No,,,,
bells-pizza-ann-arbor,Bell's Pizza,"['pizza', 'catering', 'italian']",42.270764485,-83.7405328453,MI,"500 S State St, Ann Arbor, MI 48109",592.5444432221,2.5,28,False,No,Yes,Yes,Yes,,Late Night,Private Lot,,,Yes,Yes,Casual,Divey,Average,No,No,No,No,,No,Yes,,1,
bravo-cucina-italiana-ann-arbor,Bravo! Cucina Italiana,['italian'],42.2382317,-83.7438736,MI,"500 S State St, Ann Arbor, MI 48109",3754.9087549401,3.5,23,False,Yes,No,Yes,Yes,,,,Yes,,Yes,Yes,Casual,,Average,,No,,No,,Yes,,,2,
brazamerica-ann-arbor,Brazamerica,"['grocery', 'restaurants', 'ethnicmarkets']",42.273722291,-83.7490233779,MI,"500 S State St, Ann Arbor, MI 48109",693.3599346121,3,2,False,,,,Yes,,,,,,,,,,,,,,,,,,,3,
saica-ann-arbor,Saica,"['japanese', 'sushi', 'korean']",42.2987696929,-83.7215693731,MI,"500 S State St, Ann Arbor, MI 48109",2985.6896322092,3.5,45,False,No,Yes,Yes,Yes,,Lunch,Private Lot,Yes,Yes,Yes,Yes,Casual,Casual,Average,Beer & Wine Only,No,Free,No,,Yes,,,2,
paradise-asian-cuisine-ann-arbor,Paradise Asian Cuisine,"['chinese', 'vietnamese', 'thai']",42.2451172,-83.7581329,MI,"500 S State St, Ann Arbor, MI 48109",3776.099558876,3.5,55,False,Yes,Yes,Yes,Yes,,Lunch,Private Lot,Yes,Yes,Yes,Yes,Casual,,Quiet,Full Bar,No,No,No,,Yes,Yes,,2,
burrito-joint-ann-arbor-3,Burrito Joint,"['food', 'mexican', 'pizza']",42.2657586,-83.7352861,MI,"500 S State St, Ann Arbor, MI 48109",1266.2498554172,2,21,False,No,Yes,Yes,Yes,,"Lunch, Dinner, Late Night",Private Lot,,Yes,Yes,No,Casual,Casual,Quiet,No,Yes,Free,No,,No,Yes,,1,
panera-bread-ann-arbor-2,Panera Bread,"['sandwiches', 'salad', 'soup']",42.298431,-83.719734,MI,"500 S State St, Ann Arbor, MI 48109",3039.7684771863,3.5,10,False,No,No,Yes,Yes,,"Breakfast, Brunch",,Yes,,Yes,Yes,Casual,Casual,Average,No,Yes,Free,No,,Yes,Yes,,1,
sushi-ann-arbor,Sushi,['sushi'],42.2789116,-83.7400131,MI,"500 S State St, Ann Arbor, MI 48109",295.8747617706,2.5,62,False,No,No,Yes,Yes,,"Lunch, Dinner",Street,Yes,Yes,Yes,Yes,Casual,Casual,Average,No,No,,Yes,,Yes,Yes,,2,
tianchu-restaurant-ann-arbor,Tianchu Restaurant,"['korean', 'chinese']",42.2779694,-83.7411575,MI,"500 S State St, Ann Arbor, MI 48109",191.1688131767,2,79,False,No,No,Yes,Yes,,Lunch,Street,Yes,Yes,Yes,No,Casual,Casual,Average,No,No,No,No,,Yes,No,,2,
lucky-kitchen-ann-arbor-2,Lucky Kitchen,['chinese'],42.27457,-83.735519,MI,"500 S State St, Ann Arbor, MI 48109",510.9436262191,2,21,False,No,Yes,Yes,Yes,,Lunch,,,,No,No,Casual,Divey,Quiet,No,Yes,No,No,,No,,,1,
panera-bread-ann-arbor-4,Panera Bread,"['sandwiches', 'salad', 'soup']",42.2788086,-83.7397995,MI,"500 S State St, Ann Arbor, MI 48109",313.0069530385,2.5,24,False,No,No,Yes,Yes,,Breakfast,,Yes,,Yes,Yes,Casual,,Loud,No,No,Free,No,,No,Yes,,1,
lotus-thai-ann-arbor,Lotus Thai,['thai'],42.2459846493,-83.7690876771,MI,"500 S State St, Ann Arbor, MI 48109",4067.1416706671,3,67,False,Yes,No,Yes,Yes,,"Lunch, Dinner",Street,No,Yes,No,Yes,Casual,Casual,Quiet,Beer & Wine Only,No,No,No,,Yes,Yes,,2,
everyday-lunch-ann-arbor-2,Everyday Lunch,['newamerican'],42.2843156755,-83.7459267676,MI,"500 S State St, Ann Arbor, MI 48109",866.9946629836,5,1,False,,,,,,,,,,,,,,,,,,,,,,,,
noodles-and-company-ann-arbor-3,Noodles & Company,"['italian', 'comfortfood', 'asianfusion']",42.2748182,-83.7776039,MI,"500 S State St, Ann Arbor, MI 48109",2990.230112131,3,10,False,No,No,Yes,Yes,,,,No,No,Yes,Yes,Casual,,,No,No,Free,No,,,No,,1,
jimmy-johns-ann-arbor-2,Jimmy John's,['sandwiches'],42.2824707,-83.73703,MI,"500 S State St, Ann Arbor, MI 48109",792.5741946604,3,9,False,No,Yes,Yes,Yes,,,,,,Yes,Yes,Casual,,,No,No,No,No,,No,Yes,,1,
olive-garden-italian-restaurant-ann-arbor-2,Olive Garden Italian Restaurant,['italian'],42.2441063,-83.7407379,MI,"500 S State St, Ann Arbor, MI 48109",3529.4917276229,3.5,52,False,Yes,No,Yes,Yes,,Lunch,Private Lot,Yes,No,Yes,Yes,Casual,Casual,Average,Full Bar,No,No,No,,Yes,Yes,,2,
cloverleaf-restaurant-ann-arbor,Cloverleaf Restaurant,['diners'],42.279747,-83.747101,MI,"500 S State St, Ann Arbor, MI 48109",615.9639711455,3,28,False,No,No,Yes,Yes,,,Street,Yes,Yes,Yes,No,Casual,,,No,Yes,,No,,Yes,,,1,
banditos-ann-arbor,Bandito's,['mexican'],42.2798119,-83.7476044,MI,"500 S State St, Ann Arbor, MI 48109",638.3373016605,3.5,92,False,Yes,No,Yes,Yes,,"Lunch, Dinner",Street,Yes,Yes,Yes,Yes,Casual,Casual,Average,Full Bar,No,No,No,,Yes,No,,2,
potbelly-sandwich-shop-ann-arbor-5,Potbelly Sandwich Shop,['sandwiches'],42.2467212,-83.7591187,MI,"500 S State St, Ann Arbor, MI 48109",3594.3946687261,4,7,False,No,No,Yes,Yes,,,,,,Yes,Yes,Casual,,Average,No,Yes,,No,,No,Yes,,1,
the-old-siam-ann-arbor,The Old Siam,"['thai', 'chinese']",42.2788725881,-83.7829399109,MI,"500 S State St, Ann Arbor, MI 48109",3437.4842527763,3,45,False,Yes,No,Yes,Yes,,Dinner,Private Lot,Yes,Yes,No,Yes,Casual,Casual,Quiet,Beer & Wine Only,No,No,No,,Yes,,,2,
om-market-ann-arbor,OM Market,"['indpak', 'markets', 'ethnicmarkets']",42.3025902361,-83.7063105404,MI,"500 S State St, Ann Arbor, MI 48109",4129.9857226688,4.5,10,False,,,No,Yes,,,,,,Yes,,,,,,No,,,,,,,,
chicago-reds-windy-city-hot-dogs-ann-arbor,Chicago Red's Windy City Hot Dogs,['hotdog'],42.2788696,-83.7411575,MI,"500 S State St, Ann Arbor, MI 48109",305.1134776928,3,11,False,No,No,Yes,Yes,,"Dinner, Late Night",Street,,Yes,Yes,Yes,Casual,,Average,No,Yes,Free,No,No,No,,,1,
espresso-royale-ann-arbor-5,Espresso Royale,"['restaurants', 'coffee']",42.278511,-83.7411499,MI,"500 S State St, Ann Arbor, MI 48109",269.6512275714,3,57,False,No,No,Yes,Yes,,Breakfast,Street,Yes,Yes,Yes,Yes,Casual,Casual,Average,No,Yes,Free,No,,No,No,,1,
toarminas-pizza-ann-arbor-2,Toarmina's Pizza,"['pizza', 'mexican']",42.2657318,-83.7354431,MI,"500 S State St, Ann Arbor, MI 48109",1267.8857439937,3,8,False,No,Yes,Yes,Yes,,,,Yes,,Yes,Yes,Casual,,Average,No,Yes,Free,Yes,,No,Yes,,1,
china-gate-restaurant-ann-arbor,China Gate Restaurant,['chinese'],42.275192,-83.734306,MI,"500 S State St, Ann Arbor, MI 48109",577.1312292385,3,82,False,No,No,Yes,Yes,,"Lunch, Dinner",Street,Yes,Yes,Yes,Yes,Casual,Casual,Average,No,No,No,No,,Yes,No,,2,
sweetwaters-coffee-and-tea-ann-arbor-4,Sweetwaters Coffee & Tea,"['coffee', 'breakfast_brunch']",42.279356,-83.741961,MI,"500 S State St, Ann Arbor, MI 48109",350.8694914462,3,13,False,No,No,Yes,Yes,,Breakfast,Garage,Yes,,Yes,Yes,Casual,Casual,Average,No,Yes,Free,No,,No,No,,1,
lucky-kitchen-ann-arbor,Lucky Kitchen,['chinese'],42.2984025342,-83.7211920868,MI,"500 S State St, Ann Arbor, MI 48109",2968.7045744466,2.5,22,False,No,Yes,Yes,Yes,,"Lunch, Dinner",Private Lot,Yes,Yes,Yes,No,Casual,Divey,Quiet,No,Yes,No,No,,No,Yes,,1,
chimney-cake-cafe-briarwood-mall-ann-arbor-6,Chimney Cake Cafe - Briarwood Mall,"['desserts', 'cafes', 'falafel']",42.2421936,-83.7435961,MI,"500 S State St, Ann Arbor, MI 48109",3790.1800370406,4.5,6,False,Yes,Yes,Yes,Yes,,,Private Lot,Yes,Yes,Yes,No,Casual,,Quiet,No,Yes,Free,Yes,No,No,Yes,,1,
evergreen-restaurant-ann-arbor,Evergreen Restaurant,['chinese'],42.302608341,-83.7054991722,MI,"500 S State St, Ann Arbor, MI 48109",4136.5221028004,3.5,60,False,Yes,Yes,Yes,Yes,,Lunch,Private Lot,Yes,Yes,Yes,Yes,Casual,Casual,Average,No,No,No,No,,Yes,Yes,,2,
university-of-michigan-health-system-cafe-ann-arbor,University of Michigan Health System Cafe,"['cafes', 'food_court']",42.2848388285,-83.7294262395,MI,"500 S State St, Ann Arbor, MI 48109",1367.704636851,4,1,False,,,,,,,,,,,,,,,,,,,,,,,,
red-robin-gourmet-burgers-ann-arbor,Red Robin Gourmet Burgers,"['burgers', 'tradamerican']",42.241581,-83.7399902,MI,"500 S State St, Ann Arbor, MI 48109",3855.1626711556,3.5,34,False,No,No,Yes,Yes,,Lunch,Private Lot,Yes,Yes,Yes,Yes,Casual,Casual,Average,Full Bar,Yes,Free,Yes,,Yes,No,No,2,
qdoba-mexican-grill-ann-arbor-3,Qdoba Mexican Grill,['mexican'],42.2979982942,-83.7201225758,MI,"500 S State St, Ann Arbor, MI 48109",3027.5280216785,3,11,False,No,No,Yes,Yes,,,,Yes,,Yes,Yes,Casual,,Average,No,No,Free,No,,No,Yes,,1,
mediterranean-hommus-express-ann-arbor,Mediterranean Hommus Express,['mediterranean'],42.2795143,-83.742569,MI,"500 S State St, Ann Arbor, MI 48109",368.1873217391,3.5,17,False,No,Yes,Yes,Yes,,Lunch,,,,Yes,Yes,Casual,Casual,Quiet,No,No,No,,,No,,,1,
dominos-pizza-ann-arbor-2,Domino's Pizza,['pizza'],42.252009809,-83.7497623265,MI,"500 S State St, Ann Arbor, MI 48109",2645.9128696236,3,12,False,No,Yes,Yes,Yes,,,Private Lot,,Yes,Yes,,Casual,,,,,,,,No,,,1,
barry-bagels-ann-arbor,Barry Bagels,"['delis', 'bagels']",42.280567959,-83.7806841731,MI,"500 S State St, Ann Arbor, MI 48109",3382.2323516747,4,56,False,No,No,Yes,Yes,,"Breakfast, Brunch",Private Lot,Yes,Yes,Yes,Yes,Casual,Casual,Average,No,No,Free,No,,No,Yes,,1,
china-king-ann-arbor,China King,['chinese'],42.284286499,-83.8063049316,MI,"500 S State St, Ann Arbor, MI 48109",5421.430684319,4,23,False,No,Yes,Yes,Yes,,Lunch,Private Lot,Yes,,Yes,Yes,Casual,Casual,Quiet,No,No,No,Yes,,Yes,No,,1,
max-and-ermas-ann-arbor-9,Max & Erma's,"['tradamerican', 'burgers']",42.2441063,-83.7407379,MI,"500 S State St, Ann Arbor, MI 48109",3532.635060778,3,29,False,Yes,No,Yes,Yes,,Lunch,Private Lot,Yes,Yes,Yes,Yes,Casual,,Very Loud,Full Bar,Yes,Free,Yes,,Yes,,No,2,
grahams-restaurant-ann-arbor,Graham's Restaurant,"['catering', 'tradamerican', 'breakfast_brunch']",42.2385216,-83.7415085,MI,"500 S State St, Ann Arbor, MI 48109",4202.1213978215,3.5,15,False,Yes,No,No,Yes,,,Private Lot,Yes,,Yes,Yes,Casual,Casual,Quiet,Full Bar,Yes,No,No,,Yes,No,,2,
joes-crab-shack-ann-arbor-2,Joe's Crab Shack,"['seafood', 'tradamerican']",42.2412796,-83.7639313,MI,"500 S State St, Ann Arbor, MI 48109",4375.3596692238,3,50,False,Yes,No,Yes,Yes,,"Lunch, Dinner",Private Lot,No,Yes,Yes,Yes,Casual,Casual,Average,Full Bar,Yes,No,Yes,,Yes,No,,2,
tasty-green-cafe-ann-arbor,Tasty Green Cafe,['cafes'],42.2814827,-83.7458572,MI,"500 S State St, Ann Arbor, MI 48109",668.0553329934,3,2,False,,,Yes,,,,,,,,,Casual,,Quiet,,,,,,,,,,
buffalo-wild-wings-ann-arbor-3,Buffalo Wild Wings,"['sportsbars', 'chicken_wings', 'tradamerican']",42.241978,-83.735909,MI,"500 S State St, Ann Arbor, MI 48109",3832.0534513883,3,20,False,No,No,Yes,Yes,,Brunch,,No,,Yes,Yes,Casual,,Average,Full Bar,Yes,Free,Yes,,Yes,,,2,
olgas-kitchen-ann-arbor,Olga's Kitchen,"['sandwiches', 'salad']",42.2410337555,-83.7452357644,MI,"500 S State St, Ann Arbor, MI 48109",3927.7857351869,3,36,False,No,No,Yes,Yes,,Lunch,Private Lot,No,No,Yes,No,Casual,Casual,Average,No,No,No,No,,Yes,Yes,,1,
paesano-restaurant-and-wine-bar-ann-arbor,Paesano Restaurant & Wine Bar,"['italian', 'wine_bars']",42.256294,-83.691345,MI,"500 S State St, Ann Arbor, MI 48109",4671.5867187518,3.5,110,False,Yes,No,Yes,Yes,,Dinner,Private Lot,Yes,Yes,Yes,Yes,Casual,Romantic,Average,Full Bar,Yes,Free,Yes,,Yes,Yes,,2,
godaiko-japanese-restaurant-ann-arbor,Godaiko Japanese Restaurant,"['japanese', 'sushi']",42.2409515,-83.770874,MI,"500 S State St, Ann Arbor, MI 48109",4474.763433669,3,70,False,Yes,No,Yes,Yes,,Dinner,Private Lot,Yes,Yes,Yes,Yes,Casual,Casual,Average,Full Bar,No,Free,Yes,,Yes,No,,2,
carsons-american-bistro-ann-arbor,Carson's American Bistro,['newamerican'],42.3047981,-83.6958466,MI,"500 S State St, Ann Arbor, MI 48109",4897.3505931316,3.5,73,False,Yes,No,Yes,Yes,,Dinner,Private Lot,Yes,Yes,Yes,Yes,Casual,Casual,Average,Full Bar,Yes,No,Yes,,Yes,No,,2,
qdoba-mexican-grill-ann-arbor-2,Qdoba Mexican Grill,"['mexican', 'hotdogs']",42.2521110624,-83.7497817725,MI,"500 S State St, Ann Arbor, MI 48109",2638.043939937,3,12,False,No,No,Yes,Yes,,Lunch,,Yes,,Yes,Yes,Casual,,Average,No,Yes,Free,No,,No,Yes,No,1,
jimmy-johns-ann-arbor-5,Jimmy John's,['sandwiches'],42.3035108466,-83.7092324257,MI,"500 S State St, Ann Arbor, MI 48109",4019.8614680517,3.5,10,False,No,Yes,Yes,Yes,,,,,,Yes,Yes,Casual,,,,Yes,,No,,,,,1,
kirkland-and-ellis-café-ann-arbor,Kirkland & Ellis Café,"['cafes', 'coffee']",42.2743444,-83.7394024,MI,"500 S State St, Ann Arbor, MI 48109",262.5875336363,2.5,4,False,No,No,No,Yes,,,,Yes,,Yes,No,Casual,,Loud,No,No,Free,Yes,,No,,,1,
carlyle-grill-ann-arbor,Carlyle Grill,['tradamerican'],42.285675,-83.803413,MI,"500 S State St, Ann Arbor, MI 48109",5240.3643879594,3.5,87,False,Yes,No,Yes,Yes,,Dinner,Private Lot,Yes,Yes,Yes,Yes,Casual,Casual,Average,,Yes,Free,Yes,,Yes,Yes,,2,
los-amigos-restaurant-and-cantina-ann-arbor,Los Amigos Restaurant & Cantina,"['ethnicmarkets', 'mexican']",42.239958,-83.740742,MI,"500 S State St, Ann Arbor, MI 48109",4034.3674491566,3,40,False,Yes,Yes,Yes,Yes,,"Lunch, Dinner",Private Lot,Yes,,Yes,Yes,Casual,Casual,Average,Full Bar,Yes,No,Yes,,Yes,Yes,,2,
stadium-deli-and-wine-shop-ann-arbor,Stadium Deli & Wine Shop,"['delis', 'sandwiches']",42.258057,-83.737999,MI,"500 S State St, Ann Arbor, MI 48109",2338.3180120939,4,2,False,No,No,Yes,Yes,,,,Yes,,No,No,Casual,,Quiet,Full Bar,No,Free,No,,No,No,,1,
chans-garden-ann-arbor,Chan's Garden,['chinese'],42.273697,-83.777702,MI,"500 S State St, Ann Arbor, MI 48109",3016.9799537226,3.5,29,False,No,Yes,Yes,Yes,,Lunch,,Yes,,No,No,Casual,,Average,No,No,,Yes,,No,,,1,
cottage-inn-pizza-ann-arbor-4,Cottage Inn Pizza,['pizza'],42.2906342,-83.7367325,MI,"500 S State St, Ann Arbor, MI 48109",1648.6127510355,2,9,False,No,Yes,Yes,Yes,,,,,,No,Yes,Casual,,,,,,,,,,,2,
babo-real-food-fast-ann-arbor-2,Babo: Real Food Fast,['hotdogs'],42.2784121335,-83.7407252938,MI,"500 S State St, Ann Arbor, MI 48109",235.4122032809,5,1,False,No,,Yes,Yes,,,,,,Yes,No,,,,,,,,,,,,2,
the-village-pub-ann-arbor,The Village Pub,['tradamerican'],42.2553596893,-83.6911547184,MI,"500 S State St, Ann Arbor, MI 48109",4735.3081749146,3.5,26,False,No,No,Yes,Yes,,Dinner,Private Lot,No,,No,Yes,Casual,Casual,Average,Full Bar,No,Free,Yes,,Yes,No,,1,
romanos-macaroni-grill-ann-arbor,Romano's Macaroni Grill,['italian'],42.2428284,-83.7404099,MI,"500 S State St, Ann Arbor, MI 48109",3594.2022423289,2.5,62,False,Yes,No,Yes,Yes,,"Lunch, Dinner",Private Lot,Yes,Yes,Yes,Yes,Casual,Casual,Average,Full Bar,No,No,No,,Yes,Yes,,2,
california-pizza-kitchen-ann-arbor,California Pizza Kitchen,"['pizza', 'tradamerican']",42.2380104,-83.7446136,MI,"500 S State St, Ann Arbor, MI 48109",3798.0627389486,3.5,41,False,Yes,No,Yes,Yes,,Lunch,Private Lot,Yes,Yes,Yes,Yes,Casual,Casual,Average,Full Bar,No,Free,Yes,,Yes,Yes,,2,
jimmy-johns-ann-arbor-3,Jimmy John's,['sandwiches'],42.2750546783,-83.7343986332,MI,"500 S State St, Ann Arbor, MI 48109",595.4179507537,3,6,False,,Yes,Yes,Yes,,,,,,,,,,,,,,No,,,,,1,
zamaan-cafe-ann-arbor,Zamaan Cafe,"['mideastern', 'halal']",42.3053017,-83.69133,MI,"500 S State St, Ann Arbor, MI 48109",5186.949558438,3.5,52,False,No,Yes,Yes,Yes,,Lunch,Private Lot,Yes,,Yes,Yes,Casual,Casual,Quiet,No,No,No,No,,Yes,,,2,
panda-house-ann-arbor,Panda House,['chinese'],42.2841784501,-83.7833033502,MI,"500 S State St, Ann Arbor, MI 48109",3565.7861865312,3,27,False,Yes,Yes,Yes,Yes,,Dinner,Private Lot,Yes,,Yes,Yes,Casual,,Quiet,No,No,No,No,No,Yes,Yes,,1,
panda-chinese-and-korean-foods-ann-arbor,Panda Chinese & Korean Foods,"['chinese', 'korean']",42.2450307012,-83.6996868253,MI,"500 S State St, Ann Arbor, MI 48109",4863.0937015656,3.5,30,False,No,No,Yes,Yes,,Lunch,Private Lot,,Yes,Yes,No,Casual,,Average,No,No,No,No,,Yes,Yes,,2,
kabob-palace-ann-arbor,Kabob Palace,['indpak'],42.2777704149,-83.7428811193,MI,"500 S State St, Ann Arbor, MI 48109",197.4987094111,4,1,False,,,,,,,,,,,,,,,,,,,,,,,2,
chipotle-mexican-grill-ann-arbor-2,Chipotle Mexican Grill,"['mexican', 'hotdogs']",42.2381058,-83.7442627,MI,"500 S State St, Ann Arbor, MI 48109",3792.5173041275,3,20,False,No,No,Yes,Yes,,Lunch,,Yes,Yes,Yes,Yes,Casual,,Loud,No,Yes,No,No,,No,Yes,No,1,
subway-ann-arbor-13,Subway,"['sandwiches', 'hotdogs']",42.2705526616,-83.7408003352,MI,"500 S State St, Ann Arbor, MI 48109",633.516218884,4,1,False,No,No,Yes,Yes,,,,,Yes,Yes,No,Casual,,,No,No,,,,No,,,1,
moes-southwest-grill-ann-arbor,Moe's Southwest Grill,"['tex-mex', 'mexican']",42.245121,-83.7583694,MI,"500 S State St, Ann Arbor, MI 48109",3734.0579484732,3,44,False,No,Yes,Yes,Yes,,Lunch,Private Lot,No,Yes,Yes,Yes,Casual,Casual,Average,No,No,,Yes,,No,Yes,,1,
marks-midtown-coney-island-ann-arbor,Mark's Midtown Coney Island,['tradamerican'],42.2335739,-83.7392731,MI,"500 S State St, Ann Arbor, MI 48109",4748.7421081496,4,21,False,No,No,Yes,Yes,,Breakfast,Private Lot,No,Yes,Yes,Yes,Casual,Casual,Average,No,No,No,Yes,,Yes,No,,1,
noodles-and-company-ann-arbor,Noodles & Company,"['comfortfood', 'italian', 'asianfusion']",42.2556534,-83.6884995,MI,"500 S State St, Ann Arbor, MI 48109",4916.3513629797,3.5,45,False,No,No,Yes,Yes,,Lunch,Private Lot,Yes,No,Yes,Yes,Casual,Casual,Average,No,Yes,Free,No,,No,Yes,,1,
mercys-at-the-bell-tower-ann-arbor,Mercy's at the Bell Tower,"['asianfusion', 'french']",42.2792511,-83.7399368,MI,"500 S State St, Ann Arbor, MI 48109",356.7612985239,3,33,False,Yes,No,Yes,Yes,,Dinner,"Valet, Street",,No,No,Yes,Casual,"Intimate, Romantic",Average,Full Bar,Yes,,No,,Yes,Yes,,2,
dads-dogs-ann-arbor,Dad's Dogs,['hotdog'],42.2778282,-83.7419662,MI,"500 S State St, Ann Arbor, MI 48109",2470.5682112621,5,1,False,No,No,Yes,No,,,"Garage, Street",,Yes,Yes,Yes,Casual,,,No,,,,,No,,,1,
backroom-pizza-ann-arbor,Backroom Pizza,['pizza'],42.274696,-83.734344,MI,"500 S State St, Ann Arbor, MI 48109",573.0592667112,3.5,38,False,No,No,Yes,Yes,,Late Night,,,Yes,Yes,Yes,Casual,,,No,Yes,No,No,,No,,,1,
bewon-ann-arbor-2,Bewon,['korean'],42.3052176,-83.6920978,MI,"500 S State St, Ann Arbor, MI 48109",5174.0068696651,4,56,False,Yes,No,Yes,Yes,,Lunch,Private Lot,Yes,Yes,Yes,Yes,Casual,Casual,Average,No,No,No,No,,Yes,No,,2,
applebees-ann-arbor,Applebee's,"['tradamerican', 'sportsbars', 'burgers']",42.2470627,-83.7600403,MI,"500 S State St, Ann Arbor, MI 48109",3591.8198216558,3,23,False,No,No,Yes,Yes,,Lunch,Private Lot,Yes,Yes,Yes,Yes,Casual,,Average,Full Bar,No,No,Yes,,Yes,No,No,2,
jersey-mikes-subs-ann-arbor-2,Jersey Mike's Subs,"['hotdogs', 'delis', 'sandwiches']",42.2807704657,-83.7816511095,MI,"500 S State St, Ann Arbor, MI 48109",3440.3297504306,3.5,5,False,No,No,Yes,Yes,,,,No,,Yes,No,Casual,,Quiet,No,No,,Yes,,No,Yes,No,1,
marketplace-dining-hall-ann-arbor,Marketplace Dining Hall,"['diyfood', 'tradamerican', 'internetcafe']",42.2802809626,-83.7311424315,MI,"500 S State St, Ann Arbor, MI 48109",941.1014942791,2.5,2,False,,,No,,,,,,,,Yes,,,Loud,,,Free,,,,,,2,
outback-steakhouse-ann-arbor,Outback Steakhouse,['steak'],42.2405014,-83.7704163,MI,"500 S State St, Ann Arbor, MI 48109",4547.1304910212,3,35,False,Yes,No,Yes,Yes,,Dinner,Private Lot,Yes,Yes,Yes,Yes,Casual,Casual,Average,Full Bar,No,Free,Yes,,Yes,No,,2,
chipotle-mexican-grill-ann-arbor-4,Chipotle Mexican Grill,"['mexican', 'hotdogs']",42.255413,-83.693314,MI,"500 S State St, Ann Arbor, MI 48109",4550.8379108523,3,45,False,No,No,Yes,Yes,,"Lunch, Dinner",Private Lot,No,Yes,Yes,Yes,Casual,Casual,Average,No,Yes,No,No,,No,No,No,1,
achilles-restaurant-ann-arbor,Achilles Restaurant,"['diners', 'greek', 'mediterranean']",42.245224,-83.6986694,MI,"500 S State St, Ann Arbor, MI 48109",4907.2813483408,4,12,False,No,No,Yes,Yes,,Lunch,Private Lot,,Yes,Yes,No,Casual,,,No,No,,No,,Yes,,,1,
five-guys-burgers-and-fries-ann-arbor-4,Five Guys Burgers and Fries,"['burgers', 'hotdogs']",42.2558479309,-83.6879348755,MI,"500 S State St, Ann Arbor, MI 48109",4942.7834040374,4,17,False,No,No,Yes,Yes,,Lunch,Private Lot,Yes,Yes,Yes,Yes,Casual,Casual,Loud,No,No,No,No,,No,Yes,No,2,
subway-ann-arbor-4,Subway,"['sandwiches', 'hotdogs']",42.2708147717,-83.7406284779,MI,"500 S State St, Ann Arbor, MI 48109",605.5838612503,1,1,False,,,,,,,,,,,,,,,,,,,,,,,,
cottage-inn-pizza-ann-arbor-7,Cottage Inn Pizza,"['pizza', 'italian']",42.2761612,-83.7786484,MI,"500 S State St, Ann Arbor, MI 48109",3072.5200122349,3,9,False,No,Yes,Yes,Yes,,,Private Lot,No,,Yes,No,Casual,Casual,Very Loud,No,No,No,Yes,,No,Yes,,1,
