id,name,categories,latitude,longitude,state,college,distance_from_college,rating,review_count,permanently_closed,TakesReservations,Delivery,Take-out,AcceptsCreditCards,AcceptsBitcoin,GoodFor,Parking,BikeParking,WheelchairAccessible,GoodforKids,GoodforGroups,Attire,Ambience,NoiseLevel,Alcohol,OutdoorSeating,Wi-Fi,HasTV,DogsAllowed,WaiterService,Caters,Drive-Thru,Price
heavenly-buffaloes-durham,Heavenly Buffaloes,"['chicken_wings', 'beer_and_wine', 'vegetarian']",36.00967,-78.920303,NC,"2138 Campus Dr, Durham, NC 27708",1601.8033732989095,4.5,59,False,No,Yes,Yes,Yes,,"Lunch, Late Night","Street, Private Lot",Yes,,Yes,Yes,Casual,Casual,Average,Beer & Wine Only,Yes,No,No,Yes,No,Yes,,2
local-22-durham,Local 22,"['newamerican', 'bars']",36.007965,-78.926498,NC,"2138 Campus Dr, Durham, NC 27708",1180.919049710659,4.0,97,False,Yes,No,Yes,Yes,,Brunch,Private Lot,Yes,,No,Yes,Casual,Casual,Average,Full Bar,Yes,Free,No,,Yes,Yes,,2
gregorias-cuban-steakhouse-durham-2,Gregoria's Cuban Steakhouse,"['cuban', 'breakfast_brunch', 'caribbean']",36.01161,-78.9307,NC,"2138 Campus Dr, Durham, NC 27708",1336.808206064498,4.0,81,False,Yes,No,Yes,Yes,,Dinner,Private Lot,Yes,Yes,Yes,Yes,Casual,Intimate,Average,Full Bar,Yes,Free,Yes,,Yes,Yes,,2
six-plates-durham,Six Plates,"['tapas', 'wine_bars']",36.0069860210291,-78.9477113589015,NC,"2138 Campus Dr, Durham, NC 27708",1529.8550852269605,4.0,133,False,No,No,No,Yes,,"Dinner, Late Night",Private Lot,Yes,Yes,No,Yes,Casual,"Intimate, Romantic",Average,Full Bar,Yes,Free,Yes,,No,No,,2
nosh-durham,Nosh,"['burgers', 'pizza', 'sandwiches']",36.007468,-78.9472,NC,"2138 Campus Dr, Durham, NC 27708",1520.4327445239362,4.0,149,False,Yes,Yes,Yes,Yes,,Lunch,Private Lot,Yes,Yes,Yes,Yes,Casual,Casual,Average,Beer & Wine Only,Yes,Free,Yes,,No,Yes,No,1
the-federal-durham,The Federal,"['pubs', 'newamerican']",36.000702197804,-78.909943702314,NC,"2138 Campus Dr, Durham, NC 27708",2097.912838545884,4.0,223,False,No,No,Yes,Yes,,Dinner,Street,No,Yes,No,Yes,Casual,Casual,Average,Full Bar,Yes,Free,Yes,,Yes,No,,2
vin-rouge-durham,Vin Rouge,"['french', 'breakfast_brunch']",36.0106213373,-78.9223137726,NC,"2138 Campus Dr, Durham, NC 27708",1556.5148444183446,4.0,215,False,Yes,No,Yes,Yes,No,Dinner,"Street, Private Lot",Yes,Yes,No,Yes,Dressy,Intimate,Average,Full Bar,Yes,No,No,,Yes,Yes,,2
the-little-dipper-durham,The Little Dipper,['fondue'],35.9999313,-78.9101563,NC,"2138 Campus Dr, Durham, NC 27708",2075.6833234393544,4.5,83,False,Yes,No,No,Yes,,Dinner,"Street, Private Lot, Validated",Yes,Yes,Yes,Yes,Casual,Trendy,Average,Full Bar,No,No,No,No,Yes,No,,3
dains-place-durham,Dain's Place,"['tradamerican', 'burgers', 'bars']",36.0095596,-78.9218674,NC,"2138 Campus Dr, Durham, NC 27708",1501.2109810843679,4.0,137,False,No,No,Yes,Yes,,"Lunch, Dinner",Street,Yes,Yes,No,Yes,Casual,Casual,Average,Full Bar,Yes,Free,Yes,,Yes,No,No,2
toast-durham,Toast,['sandwiches'],35.996428,-78.903126,NC,"2138 Campus Dr, Durham, NC 27708",2733.9837631310197,4.0,279,False,No,No,Yes,Yes,,Lunch,Street,Yes,Yes,Yes,No,Casual,Casual,Average,Beer & Wine Only,Yes,Free,No,,No,No,,1
parker-and-otis-durham,Parker & Otis,"['gourmet', 'breakfast_brunch', 'sandwiches']",35.998951,-78.9088821,NC,"2138 Campus Dr, Durham, NC 27708",2192.0461314014974,4.0,255,False,No,No,Yes,Yes,,Lunch,"Street, Private Lot",Yes,Yes,Yes,Yes,Casual,Casual,Average,Beer & Wine Only,Yes,No,No,,No,Yes,,1
nanas-durham,Nana's,['newamerican'],35.9739304,-78.925087,NC,"2138 Campus Dr, Durham, NC 27708",2964.0144482368937,4.5,193,False,Yes,No,No,Yes,,Dinner,Private Lot,No,Yes,No,Yes,Dressy,Classy,Average,Full Bar,Yes,No,No,,Yes,No,,3
juju-asian-tapas-durham,Juju Asian Tapas,"['tapasmallplates', 'asianfusion']",36.0097,-78.922698,NC,"2138 Campus Dr, Durham, NC 27708",1473.824576794946,4.0,53,False,Yes,No,Yes,Yes,,Dinner,"Street, Private Lot",Yes,,No,Yes,Casual,Classy,Average,Full Bar,Yes,Free,Yes,,Yes,Yes,,2
watts-grocery-durham,Watts Grocery,"['newamerican', 'breakfast_brunch']",36.0165367,-78.9190521,NC,"2138 Campus Dr, Durham, NC 27708",2254.2132625113445,4.0,321,False,Yes,No,Yes,Yes,,"Brunch, Dinner",Private Lot,Yes,Yes,No,Yes,Casual,Casual,Average,Full Bar,Yes,No,No,,Yes,Yes,,2
the-cosmic-cantina-durham,The Cosmic Cantina,"['hotdogs', 'mexican']",36.0078201,-78.9218521,NC,"2138 Campus Dr, Durham, NC 27708",1347.5445640941784,4.0,179,False,No,No,Yes,Yes,,"Lunch, Dinner, Late Night",Street,Yes,No,Yes,Yes,Casual,Divey,Average,Beer & Wine Only,Yes,No,No,,No,No,No,1
parts-and-labor-durham,Parts & Labor,['newamerican'],36.003512,-78.9004,NC,"2138 Campus Dr, Durham, NC 27708",2983.0550257941964,4.0,41,False,No,No,Yes,Yes,,Lunch,Street,Yes,,No,Yes,Casual,Hipster,Loud,Full Bar,Yes,No,Yes,,No,No,,1
chubbys-tacos-durham,Chubby's Tacos,['mexican'],36.009407043457,-78.9219832420349,NC,"2138 Campus Dr, Durham, NC 27708",1477.0265108233543,4.0,155,False,No,No,Yes,Yes,,Lunch,Street,Yes,Yes,Yes,No,Casual,Casual,Average,No,Yes,No,Yes,,No,Yes,,1
wimpys-grill-durham,Wimpy's Grill,"['burgers', 'hotdog', 'breakfast_brunch']",36.01297,-78.932129,NC,"2138 Campus Dr, Durham, NC 27708",1470.5758121561744,4.0,48,False,No,No,Yes,No,,Lunch,Private Lot,No,Yes,Yes,No,Casual,Divey,Average,No,No,No,No,,No,No,No,1
mateo-durham,Mateo,['tapas'],35.996719,-78.904807,NC,"2138 Campus Dr, Durham, NC 27708",2579.788936135361,4.0,235,False,Yes,No,No,Yes,,Dinner,Street,Yes,,No,Yes,Casual,Trendy,Loud,Full Bar,No,No,No,,Yes,No,,2
elmos-diner-durham,Elmo's Diner,"['diners', 'breakfast_brunch']",36.0105019,-78.9216385,NC,"2138 Campus Dr, Durham, NC 27708",1607.266038997323,3.5,239,False,No,No,Yes,Yes,,"Breakfast, Brunch",Private Lot,Yes,Yes,Yes,Yes,Casual,Casual,Average,Beer & Wine Only,No,No,No,,Yes,Yes,,1
pizzeria-toro-durham,Pizzeria Toro,"['italian', 'pizza']",35.9969850629568,-78.9036376029253,NC,"2138 Campus Dr, Durham, NC 27708",2682.142150243401,4.5,214,False,No,No,Yes,Yes,,Dinner,Street,Yes,,Yes,Yes,Casual,Casual,Loud,Full Bar,No,No,No,,Yes,No,,2
blu-seafood-and-bar-durham-2,Blu Seafood & Bar,['seafood'],36.0101967,-78.9221344,NC,"2138 Campus Dr, Durham, NC 27708",1542.3271261318603,4.0,155,False,Yes,No,Yes,Yes,,Dinner,"Street, Private Lot",No,Yes,No,Yes,Casual,Casual,Average,Full Bar,Yes,No,No,,Yes,No,,2
dames-chicken-and-waffles-durham,Dame's Chicken & Waffles,['newamerican'],35.996307,-78.903374,NC,"2138 Campus Dr, Durham, NC 27708",2714.008121405347,4.0,493,False,Yes,No,Yes,Yes,,Lunch,Street,Yes,Yes,Yes,Yes,Casual,Casual,Average,Full Bar,No,No,No,,Yes,Yes,,2
metro-8-durham,Metro 8,['steak'],36.0093560814857,-78.9219865947962,NC,"2138 Campus Dr, Durham, NC 27708",1474.1176325029514,4.0,71,False,Yes,No,Yes,Yes,,Dinner,Street,Yes,Yes,No,Yes,Casual,Classy,Average,Full Bar,Yes,Free,No,,Yes,No,,3
bull-city-burger-and-brewery-durham,Bull City Burger and Brewery,"['breweries', 'burgers', 'newamerican']",35.9954810142517,-78.8999663293362,NC,"2138 Campus Dr, Durham, NC 27708",3033.436042476805,4.0,460,False,No,No,Yes,Yes,,Lunch,"Garage, Street",Yes,Yes,Yes,Yes,Casual,Casual,Loud,Full Bar,Yes,Free,No,Yes,No,No,No,2
bar-virgile-durham,Bar Virgile,"['bars', 'tapasmallplates']",35.9946709,-78.9007263,NC,"2138 Campus Dr, Durham, NC 27708",2977.172977588141,4.5,29,False,No,No,No,Yes,,Late Night,,Yes,,No,No,Casual,Intimate,Average,Full Bar,No,No,No,,Yes,No,,2
smashburger-durham-2,Smashburger,['burgers'],36.0092684,-78.9448144,NC,"2138 Campus Dr, Durham, NC 27708",1483.8073673492352,3.5,42,False,No,No,Yes,Yes,No,Lunch,"Garage, Private Lot",Yes,Yes,Yes,Yes,Casual,Casual,Average,Beer & Wine Only,Yes,No,No,No,No,Yes,No,1
baba-ghannouj-durham,Baba Ghannouj,"['greek', 'mediterranean', 'ethnicmarkets']",36.0079384,-78.9264984,NC,"2138 Campus Dr, Durham, NC 27708",1037.209303909481,3.5,37,False,No,Yes,Yes,Yes,,Lunch,Private Lot,Yes,,Yes,Yes,Casual,Casual,Average,No,Yes,Free,Yes,,Yes,Yes,,1
the-refectory-cafe-durham-5,The Refectory Cafe,"['newamerican', 'breakfast_brunch', 'soup']",35.974381,-78.933032,NC,"2138 Campus Dr, Durham, NC 27708",2822.5315048462367,4.0,84,False,Yes,No,Yes,Yes,,Brunch,Private Lot,Yes,Yes,Yes,Yes,Casual,Casual,Average,Full Bar,Yes,Free,No,Yes,Yes,Yes,,2
guglhupf-bakery-and-patisserie-durham,Guglhupf Bakery & Patisserie,"['bakeries', 'german', 'cafes']",35.9743086,-78.9323158,NC,"2138 Campus Dr, Durham, NC 27708",2831.7325355199323,4.0,444,False,Yes,No,Yes,Yes,No,Brunch,Private Lot,Yes,Yes,Yes,Yes,Casual,Casual,Average,Full Bar,Yes,Free,No,Yes,Yes,No,,2
roses-meat-market-and-sweet-shop-durham,Rose's Meat Market and Sweet Shop,"['desserts', 'meats', 'sandwiches']",36.00075,-78.90898,NC,"2138 Campus Dr, Durham, NC 27708",2184.762505158248,4.5,53,False,No,No,Yes,Yes,,"Lunch, Dessert","Street, Private Lot",Yes,Yes,No,No,Casual,Hipster,Quiet,No,Yes,No,No,No,No,No,,2
pizza-mia-durham,Pizza Mia,"['italian', 'pizza', 'sandwiches']",36.0070076,-78.947052,NC,"2138 Campus Dr, Durham, NC 27708",1483.5059769925513,4.0,30,False,Yes,Yes,Yes,Yes,,Lunch,Private Lot,Yes,Yes,Yes,Yes,Casual,Casual,Quiet,No,Yes,Free,Yes,,Yes,Yes,,1
nanataco-durham,Nanataco,['mexican'],35.9741707,-78.924942,NC,"2138 Campus Dr, Durham, NC 27708",2921.2546752070098,4.0,247,False,No,No,Yes,Yes,,Lunch,Private Lot,Yes,Yes,Yes,Yes,Casual,Casual,Average,Beer & Wine Only,Yes,Free,Yes,,No,Yes,,1
mad-hatters-durham,Mad Hatter's,"['breakfast_brunch', 'bakeries', 'newamerican']",36.0063705,-78.9201431,NC,"2138 Campus Dr, Durham, NC 27708",1386.5696571118317,3.5,159,False,No,No,Yes,Yes,,Brunch,Private Lot,Yes,Yes,Yes,Yes,Casual,Casual,Average,No,Yes,Free,No,,No,Yes,,2
bahns-cuisine-durham-3,Bahn's Cuisine,"['vietnamese', 'chinese']",36.009449,-78.921722,NC,"2138 Campus Dr, Durham, NC 27708",1482.3162131132829,4.0,62,False,No,No,Yes,No,,Lunch,Street,Yes,Yes,Yes,No,Casual,Divey,Quiet,No,Yes,No,No,,No,No,,1
the-boot-durham,The Boot,['italian'],35.9742584,-78.9235306,NC,"2138 Campus Dr, Durham, NC 27708",2969.9739607464244,4.0,32,False,Yes,No,Yes,Yes,No,Dinner,Private Lot,Yes,Yes,Yes,Yes,Casual,Casual,Average,Full Bar,No,Free,No,,Yes,Yes,,2
oval-park-grille-durham,Oval Park Grille,['tradamerican'],36.0165367,-78.9190521,NC,"2138 Campus Dr, Durham, NC 27708",2265.9324339493737,3.5,41,False,Yes,No,Yes,Yes,No,Dinner,Private Lot,Yes,Yes,Yes,Yes,Casual,Casual,Average,Full Bar,Yes,Free,Yes,,Yes,No,,2
hummingbird-bakery-durham,Hummingbird Bakery,"['bakeries', 'sandwiches']",36.0094353865054,-78.9197775684172,NC,"2138 Campus Dr, Durham, NC 27708",1619.27894967885,4.0,37,False,No,No,Yes,Yes,,Lunch,"Street, Private Lot",Yes,,Yes,No,Casual,Trendy,Quiet,Beer & Wine Only,Yes,,No,,No,Yes,,1
dashi-durham-2,Dashi,"['ramen', 'tapasmallplates']",35.997097,-78.89923,NC,"2138 Campus Dr, Durham, NC 27708",3073.7439513521135,3.0,95,False,No,No,No,Yes,,Dinner,"Garage, Street",Yes,,No,No,Casual,Casual,Average,Full Bar,No,No,No,,Yes,No,,2
taqueria-la-vaquita-durham,Taqueria La Vaquita,['mexican'],35.9769096,-78.9364624,NC,"2138 Campus Dr, Durham, NC 27708",2551.7254251490053,4.5,76,False,No,No,Yes,Yes,,Lunch,Private Lot,Yes,Yes,Yes,Yes,Casual,Divey,Average,No,Yes,No,No,,No,No,,1
pad-thai-durham,Pad Thai,['thai'],36.0264558345079,-78.9227966219187,NC,"2138 Campus Dr, Durham, NC 27708",3123.3938149732517,4.0,84,False,Yes,No,Yes,Yes,No,Dinner,Private Lot,No,Yes,Yes,Yes,Casual,Casual,Quiet,Beer & Wine Only,No,Free,No,,Yes,No,,2
gonza-tacos-y-tequila-durham,Gonza Tacos Y Tequila,"['bars', 'mexican', 'latin']",36.000178232789,-78.9053542166948,NC,"2138 Campus Dr, Durham, NC 27708",2489.455221035364,4.0,28,False,Yes,No,Yes,Yes,,Dinner,Street,Yes,,Yes,Yes,Casual,Casual,Average,Full Bar,Yes,,No,,Yes,,,2
noodles-and-company-durham,Noodles & Company,"['asianfusion', 'comfortfood', 'italian']",36.0090622619838,-78.9444406645208,NC,"2138 Campus Dr, Durham, NC 27708",1443.905828010458,3.5,45,False,No,No,Yes,Yes,,Lunch,Private Lot,Yes,Yes,Yes,Yes,Casual,Casual,Loud,Beer & Wine Only,Yes,Free,No,,No,Yes,,1
sushi-love-durham,Sushi Love,['sushi'],36.0068953552447,-78.9469814300537,NC,"2138 Campus Dr, Durham, NC 27708",1468.9044601290698,3.5,143,False,Yes,No,Yes,Yes,,Dinner,Private Lot,Yes,Yes,Yes,Yes,Casual,Casual,Average,Full Bar,Yes,No,Yes,,Yes,,,2
taberna-tapas-durham,Taberna Tapas,['spanish'],35.9964425861835,-78.90326410532,NC,"2138 Campus Dr, Durham, NC 27708",2766.142140314808,4.0,97,False,Yes,No,Yes,Yes,,Dinner,"Garage, Street",Yes,,No,Yes,Casual,Casual,Average,Full Bar,Yes,Free,No,,Yes,No,,2
another-broken-egg-cafe-durham,Another Broken Egg Cafe,"['breakfast_brunch', 'cafes', 'tradamerican']",36.0095482,-78.9448776,NC,"2138 Campus Dr, Durham, NC 27708",1483.8073673492352,3.5,99,False,No,No,Yes,Yes,,Brunch,Private Lot,Yes,,Yes,Yes,Casual,Casual,Average,Full Bar,Yes,Free,Yes,,Yes,Yes,,2
mediterra-grill-durham,Mediterra Grill,"['mediterranean', 'mideastern']",36.0095482,-78.9448776,NC,"2138 Campus Dr, Durham, NC 27708",1483.8073673492352,3.5,51,False,No,Yes,Yes,Yes,,Lunch,Private Lot,Yes,Yes,Yes,Yes,Casual,Casual,Average,No,Yes,Free,Yes,,No,Yes,,1
the-original-q-shack-durham,The Original Q Shack,['bbq'],35.974628,-78.924316,NC,"2138 Campus Dr, Durham, NC 27708",2910.230102478615,4.0,291,False,No,No,Yes,Yes,,"Lunch, Dinner",Private Lot,Yes,Yes,Yes,Yes,Casual,Casual,Average,Beer & Wine Only,Yes,No,Yes,,No,Yes,,1
rue-cler-durham,Rue Cler,"['french', 'breakfast_brunch']",35.9970358,-78.8997553,NC,"2138 Campus Dr, Durham, NC 27708",3027.159456997995,4.0,291,False,Yes,No,Yes,Yes,,Brunch,"Garage, Street, Validated",Yes,Yes,No,Yes,Casual,Casual,Average,Full Bar,No,Free,No,No,Yes,No,,2
old-havana-sandwich-shop-durham,Old Havana Sandwich Shop,"['cuban', 'sandwiches']",35.993267,-78.898132,NC,"2138 Campus Dr, Durham, NC 27708",3239.4085689301696,4.0,151,False,No,No,Yes,Yes,,Lunch,Street,Yes,Yes,Yes,Yes,Casual,Casual,Average,Beer & Wine Only,Yes,Free,No,,No,Yes,,1
saltbox-seafood-joint-durham,Saltbox Seafood Joint,['seafood'],35.999954,-78.896088,NC,"2138 Campus Dr, Durham, NC 27708",3336.383499709645,4.0,99,False,No,No,Yes,Yes,,Lunch,Private Lot,Yes,,Yes,Yes,Casual,Casual,Average,No,Yes,No,No,,No,No,,2
geer-street-garden-durham-2,Geer Street Garden,"['newamerican', 'bars']",36.003571,-78.901123,NC,"2138 Campus Dr, Durham, NC 27708",2919.57899202269,3.5,231,False,Yes,No,Yes,Yes,,"Lunch, Dinner",Street,Yes,,Yes,Yes,Casual,Casual,Average,Full Bar,Yes,Paid,No,,Yes,No,,2
don-marcelos-durham,Don Marcelo's,['mexican'],36.0064489,-78.9481166,NC,"2138 Campus Dr, Durham, NC 27708",1531.1356510141584,4.0,17,False,No,No,Yes,Yes,,Lunch,Private Lot,Yes,,Yes,Yes,Casual,,Quiet,,Yes,Free,Yes,,Yes,Yes,,2
loaf-durham-2,Loaf,"['bakeries', 'breakfast_brunch', 'farmersmarket']",35.9957517,-78.9007399,NC,"2138 Campus Dr, Durham, NC 27708",2957.218216053752,4.0,49,False,No,No,Yes,Yes,,"Breakfast, Brunch","Garage, Street",Yes,Yes,Yes,No,Casual,Casual,Quiet,No,No,No,No,,No,Yes,,1
fosters-market-durham,Foster's Market,"['breakfast_brunch', 'delis', 'newamerican']",35.9745789,-78.9313431,NC,"2138 Campus Dr, Durham, NC 27708",2827.8979838194646,3.5,220,False,No,No,Yes,Yes,,Lunch,Private Lot,Yes,Yes,Yes,Yes,Casual,Casual,Average,Beer & Wine Only,Yes,Free,No,,No,Yes,,2
parizade-durham,Parizade,['mediterranean'],36.007965,-78.926498,NC,"2138 Campus Dr, Durham, NC 27708",1127.5009792033914,3.5,79,False,Yes,No,No,Yes,,Dinner,Private Lot,Yes,Yes,No,Yes,Dressy,Classy,Average,Full Bar,Yes,No,No,,Yes,Yes,,3
the-palace-international-durham,The Palace International,"['african', 'vegetarian']",36.01577,-78.918869,NC,"2138 Campus Dr, Durham, NC 27708",2194.1345616774042,4.0,49,False,Yes,Yes,Yes,Yes,,"Lunch, Dinner","Street, Private Lot",,Yes,Yes,Yes,Casual,Casual,Average,Full Bar,Yes,Free,Yes,,Yes,Yes,,2
sympathy-for-the-deli-durham,Sympathy For the Deli,"['delis', 'foodtrucks']",35.999073,-78.9053955,NC,"2138 Campus Dr, Durham, NC 27708",2413.4978008826974,4.5,21,False,No,No,Yes,Yes,,Lunch,,No,,Yes,Yes,Casual,,Average,No,No,No,No,,No,No,,1
revolution-durham,Revolution,"['newamerican', 'modern_european', 'gluten_free']",35.9951764,-78.9010842,NC,"2138 Campus Dr, Durham, NC 27708",2937.0460491588447,3.5,197,False,Yes,No,No,Yes,,Dinner,"Valet, Garage, Street",No,Yes,No,Yes,Dressy,Upscale,Average,Full Bar,No,No,No,No,Yes,Yes,,3
bull-mccabes-irish-pub-durham,Bull McCabe's Irish Pub,"['irish', 'pubs']",35.997196,-78.905098,NC,"2138 Campus Dr, Durham, NC 27708",2547.215016603413,3.5,128,False,No,No,Yes,Yes,,"Dinner, Late Night",Street,Yes,Yes,No,Yes,Casual,Casual,Average,Full Bar,Yes,Free,Yes,,Yes,No,,2
saladelia-cafe-durham-4,Saladelia Cafe,"['coffee', 'mediterranean', 'newamerican']",36.0097008,-78.9416199,NC,"2138 Campus Dr, Durham, NC 27708",1257.5137795842752,4.0,9,False,No,No,Yes,Yes,,,,Yes,,Yes,Yes,Casual,,,,No,Free,Yes,,,,,1
vine-sushi-and-thai-durham,Vine Sushi & Thai,"['sushi', 'thai', 'chinese']",36.0065284975016,-78.920499545495,NC,"2138 Campus Dr, Durham, NC 27708",1370.532619258815,3.0,62,False,Yes,Yes,Yes,Yes,,Dinner,Private Lot,Yes,,Yes,Yes,Casual,Intimate,Quiet,Full Bar,Yes,Free,Yes,,Yes,No,,2
tylers-restaurant-and-taproom-durham,Tyler's Restaurant & Taproom,"['bars', 'tradamerican']",35.9928365126494,-78.9055576794144,NC,"2138 Campus Dr, Durham, NC 27708",2606.4320929974447,3.5,226,False,No,No,Yes,Yes,,Dinner,Garage,Yes,Yes,Yes,Yes,Casual,Casual,Loud,Full Bar,Yes,Free,Yes,,Yes,No,,2
hungry-leaf-durham,Hungry Leaf,"['salad', 'hotdogs']",36.0092684,-78.9448144,NC,"2138 Campus Dr, Durham, NC 27708",1483.8073673492352,3.5,37,False,No,Yes,Yes,Yes,,Lunch,Private Lot,Yes,,Yes,Yes,Casual,Casual,Average,No,Yes,Free,No,,No,Yes,No,1
the-pit-durham-2,The Pit,['bbq'],36.0036746975779,-78.899794918453,NC,"2138 Campus Dr, Durham, NC 27708",3039.49421227786,3.5,195,False,Yes,No,Yes,Yes,,Dinner,Valet,Yes,Yes,Yes,Yes,Casual,Casual,Average,Full Bar,Yes,Free,Yes,,Yes,Yes,,2
cook-out-durham-2,Cook Out,"['burgers', 'hotdogs']",36.0233917,-78.9549484,NC,"2138 Campus Dr, Durham, NC 27708",3255.8148957713715,4.0,73,False,No,No,Yes,Yes,,"Lunch, Dinner, Late Night",Private Lot,Yes,Yes,Yes,Yes,Casual,Divey,Average,No,No,No,No,,No,No,Yes,1
fairview-dining-room-durham,Fairview Dining Room,"['newamerican', 'breakfast_brunch']",35.993603,-78.947533,NC,"2138 Campus Dr, Durham, NC 27708",1542.5327120800655,4.0,49,False,Yes,No,No,Yes,,Brunch,Private Lot,No,No,No,Yes,Dressy,Classy,Quiet,Full Bar,Yes,Free,No,,Yes,No,,3
mellow-mushroom-durham,Mellow Mushroom,['pizza'],35.9921608,-78.9051361,NC,"2138 Campus Dr, Durham, NC 27708",2653.9667438586207,4.0,107,False,No,No,Yes,Yes,,Dinner,Garage,Yes,Yes,Yes,Yes,Casual,Casual,Loud,Full Bar,Yes,Free,Yes,,Yes,Yes,,2
enzos-pizza-co-durham,Enzo's Pizza Co,['pizza'],36.0095482,-78.9448776,NC,"2138 Campus Dr, Durham, NC 27708",1483.8073673492352,3.5,72,False,No,Yes,Yes,Yes,,Lunch,Private Lot,Yes,Yes,Yes,Yes,Casual,Casual,Average,No,Yes,No,Yes,,No,Yes,,2
beyú-caffé-durham-3,Beyú Caffé,"['newamerican', 'breakfast_brunch', 'coffee']",35.9966202825308,-78.9035765826702,NC,"2138 Campus Dr, Durham, NC 27708",2687.471901257446,3.5,171,False,Yes,No,Yes,Yes,,"Breakfast, Dessert","Garage, Street",Yes,Yes,No,Yes,Casual,Casual,Average,Full Bar,No,Free,No,No,Yes,Yes,,2
bleu-olive-durham,Bleu Olive,"['mediterranean', 'tapas']",36.031719,-78.936607,NC,"2138 Campus Dr, Durham, NC 27708",3585.5288355222874,4.0,49,False,Yes,No,Yes,Yes,,Brunch,Private Lot,No,,No,Yes,Casual,Intimate,Average,Full Bar,No,No,No,,Yes,Yes,,2
hog-heaven-bar-b-q-durham-2,Hog Heaven Bar-B-Q,['bbq'],36.0264249891043,-78.922757729888,NC,"2138 Campus Dr, Durham, NC 27708",3120.5679800484027,4.0,81,False,No,No,Yes,Yes,,Lunch,Private Lot,No,Yes,Yes,Yes,Casual,Casual,Average,No,No,No,No,,No,Yes,,1
lillys-pizza-durham,Lilly's Pizza,['pizza'],35.999169,-78.909291,NC,"2138 Campus Dr, Durham, NC 27708",2155.0710563243615,3.0,114,False,Yes,Yes,Yes,Yes,No,Lunch,Street,Yes,No,Yes,Yes,Casual,Casual,Average,Full Bar,Yes,Free,Yes,No,Yes,Yes,,2
bullocks-bar-b-q-durham,Bullock's Bar-B-Q,"['bbq', 'catering']",36.0200386,-78.9448395,NC,"2138 Campus Dr, Durham, NC 27708",2467.6048306685475,3.5,106,False,No,No,Yes,No,,Lunch,Private Lot,Yes,Yes,Yes,Yes,Casual,Casual,Average,No,No,No,No,,Yes,Yes,,1
alivias-durham-bistro-durham,Alivia's Durham Bistro,"['newamerican', 'bars']",36.000298,-78.909225,NC,"2138 Campus Dr, Durham, NC 27708",2170.5942384072364,3.0,125,False,No,No,Yes,Yes,,"Brunch, Dinner",Street,Yes,Yes,Yes,Yes,Casual,Casual,Average,Full Bar,Yes,Free,Yes,,Yes,Yes,,2
the-blue-note-grill-durham,The Blue Note Grill,"['tradamerican', 'bbq']",35.968284,-78.959754,NC,"2138 Campus Dr, Durham, NC 27708",4244.974343449006,4.5,68,False,Yes,No,Yes,Yes,,Dinner,Private Lot,Yes,Yes,Yes,Yes,Casual,Casual,Loud,Full Bar,Yes,Free,Yes,Yes,Yes,Yes,,2
shanghai-durham,Shanghai,['chinese'],36.0194820910692,-78.9467172324657,NC,"2138 Campus Dr, Durham, NC 27708",2398.043122831869,4.0,36,False,Yes,Yes,Yes,Yes,,Dinner,Validated,Yes,Yes,Yes,Yes,Casual,Casual,Average,Full Bar,No,Free,Yes,,Yes,No,,2
nasher-cafe-durham,Nasher Cafe,"['newamerican', 'breakfast_brunch', 'galleries']",35.999836,-78.9277802,NC,"2138 Campus Dr, Durham, NC 27708",435.83773908205643,3.5,27,False,Yes,No,Yes,Yes,,Brunch,Private Lot,Yes,Yes,Yes,Yes,Casual,,Average,Beer & Wine Only,Yes,Free,No,,Yes,Yes,,2
kings-sandwich-shop-durham,King's Sandwich Shop,"['sandwiches', 'burgers', 'hotdog']",36.003891,-78.9015808,NC,"2138 Campus Dr, Durham, NC 27708",2887.6693198040116,4.0,49,False,No,No,Yes,No,,Lunch,"Street, Private Lot",Yes,Yes,Yes,Yes,Casual,Casual,Quiet,No,Yes,No,No,,No,No,No,1
blue-corn-cafe-durham,Blue Corn Cafe,"['latin', 'mexican']",36.008419,-78.9218063,NC,"2138 Campus Dr, Durham, NC 27708",1397.5715049936032,3.5,70,False,Yes,No,Yes,Yes,,"Lunch, Dinner","Street, Private Lot",Yes,Yes,Yes,Yes,Casual,Casual,Average,Full Bar,Yes,Free,No,,Yes,Yes,,2
chipotle-mexican-grill-durham,Chipotle Mexican Grill,"['mexican', 'hotdogs']",36.0095482,-78.9448776,NC,"2138 Campus Dr, Durham, NC 27708",1483.8073673492352,3.5,30,False,No,No,Yes,Yes,,Lunch,"Garage, Private Lot",Yes,Yes,Yes,Yes,Casual,Casual,Average,Beer & Wine Only,Yes,No,No,,No,Yes,No,1
basan-durham,Basan,"['japanese', 'sushi']",35.9927216,-78.9039307,NC,"2138 Campus Dr, Durham, NC 27708",2749.5726872085916,3.5,40,False,No,No,Yes,Yes,,Dinner,Garage,Yes,,Yes,Yes,Casual,Trendy,Average,Full Bar,No,,Yes,,Yes,Yes,,2
la-vaquita-ii-durham,La Vaquita II,['mexican'],36.0192337,-78.946373,NC,"2138 Campus Dr, Durham, NC 27708",2455.5179122824497,4.0,40,False,No,No,Yes,Yes,,Lunch,Private Lot,,Yes,Yes,Yes,Casual,Casual,Average,Beer & Wine Only,No,No,Yes,,Yes,No,,1
tobacco-road-sports-café-durham-2,Tobacco Road Sports Café,"['sportsbars', 'tradamerican']",35.992294,-78.903086,NC,"2138 Campus Dr, Durham, NC 27708",2836.70736916907,3.5,198,False,Yes,No,Yes,Yes,,Lunch,"Garage, Street",Yes,Yes,Yes,Yes,Casual,Casual,Average,Full Bar,Yes,Free,Yes,,Yes,Yes,,2
devils-pizzeria-durham,Devil's Pizzeria,"['pizza', 'chicken_wings']",36.0092554986477,-78.9219946414232,NC,"2138 Campus Dr, Durham, NC 27708",1459.864698160056,3.5,39,False,No,Yes,Yes,Yes,,Late Night,Street,Yes,Yes,Yes,Yes,Casual,Casual,Average,No,Yes,Free,Yes,,No,Yes,,1
la-cacerola-café-and-restaurant-durham-2,La Cacerola Café & Restaurant,['latin'],36.02317,-78.917968,NC,"2138 Campus Dr, Durham, NC 27708",2934.6404955709654,4.0,11,False,No,Yes,Yes,Yes,,,,,,Yes,Yes,Casual,Casual,Average,No,No,Free,Yes,,Yes,,,1
melo-trattoria-durham,Melo Trattoria,"['italian', 'tapas']",36.0317917,-78.9365997,NC,"2138 Campus Dr, Durham, NC 27708",3585.5288355222874,4.0,64,False,Yes,No,Yes,Yes,,Dinner,Private Lot,Yes,Yes,Yes,Yes,Casual,Casual,Average,Full Bar,Yes,Free,No,,Yes,Yes,,2
pompieri-pizza-durham,Pompieri Pizza,"['pizza', 'newamerican']",35.995815,-78.899651,NC,"2138 Campus Dr, Durham, NC 27708",3055.991684558987,3.5,85,False,Yes,No,Yes,Yes,,Dinner,"Garage, Street",Yes,Yes,Yes,Yes,Casual,Casual,Average,Full Bar,Yes,Free,No,Yes,No,No,,2
chais-noodle-bar-and-bistro-durham,Chai's Noodle Bar & Bistro,"['asianfusion', 'chicken_wings']",36.0069733,-78.9470901,NC,"2138 Campus Dr, Durham, NC 27708",1531.1356510141584,3.0,54,False,No,Yes,Yes,Yes,,Lunch,Private Lot,Yes,Yes,Yes,Yes,Casual,Casual,Average,Beer & Wine Only,Yes,No,No,,No,,,1
dos-perros-durham,Dos Perros,['mexican'],35.9957448,-78.8999616,NC,"2138 Campus Dr, Durham, NC 27708",3026.5652897302707,3.5,210,False,Yes,No,Yes,Yes,No,Dinner,"Garage, Street",Yes,Yes,No,Yes,Casual,Trendy,Average,Full Bar,Yes,Free,Yes,Yes,Yes,Yes,,2
tijuana-flats-durham,Tijuana Flats,"['tex-mex', 'mexican']",36.0077171,-78.9222946,NC,"2138 Campus Dr, Durham, NC 27708",1329.8601412469955,3.0,28,False,No,No,Yes,Yes,,,Street,Yes,,Yes,Yes,Casual,,Average,Beer & Wine Only,Yes,No,Yes,,No,Yes,,1
quick-meal-durham,Quick Meal,"['mediterranean', 'hotdogs', 'cheesesteaks']",35.997158,-78.916214,NC,"2138 Campus Dr, Durham, NC 27708",1558.2211288605517,3.5,10,False,No,Yes,Yes,Yes,,Lunch,Private Lot,,,Yes,Yes,Casual,Casual,Quiet,No,No,No,No,,No,No,No,1
kokyu-bbq-durham,KoKyu BBQ,"['bbq', 'foodtrucks']",35.99857,-78.90226,NC,"2138 Campus Dr, Durham, NC 27708",3710.0738984033355,4.5,114,False,No,No,Yes,Yes,,"Dinner, Late Night",Street,Yes,,Yes,Yes,Casual,Hipster,Average,No,Yes,Free,No,,No,No,,1
bowicks-ark-durham,Bowick's Ark,"['soulfood', 'tradamerican']",35.9852295,-78.8983383,NC,"2138 Campus Dr, Durham, NC 27708",3576.7728568762786,4.5,12,False,Yes,No,Yes,Yes,,,,,,Yes,Yes,Casual,,,,No,No,Yes,,Yes,,,1
four-square-restaurant-durham,Four Square Restaurant,['newamerican'],35.976818,-78.935722,NC,"2138 Campus Dr, Durham, NC 27708",2561.1657021811156,3.5,70,False,Yes,No,No,Yes,,Dinner,Private Lot,Yes,No,No,Yes,Dressy,Classy,Quiet,Full Bar,Yes,No,No,,Yes,No,,3
chirba-chirba-dumpling-durham,Chirba Chirba Dumpling,"['chinese', 'foodtrucks']",35.9952298468921,-78.9031219482422,NC,"2138 Campus Dr, Durham, NC 27708",2755.6029384321814,3.5,109,False,No,No,Yes,Yes,,Lunch,Street,No,Yes,Yes,Yes,Casual,Hipster,Average,No,Yes,No,No,Yes,No,Yes,,1
thai-café-durham-2,Thai Café,['thai'],35.9742584,-78.9235306,NC,"2138 Campus Dr, Durham, NC 27708",2969.9739607464244,3.5,138,False,Yes,No,Yes,Yes,,Dinner,Private Lot,No,Yes,Yes,Yes,Casual,Casual,Average,Full Bar,Yes,No,Yes,,Yes,No,,2
daisycakes-durham,DaisyCakes,"['bakeries', 'sandwiches', 'desserts']",35.999561,-78.901817,NC,"2138 Campus Dr, Durham, NC 27708",2826.403150410815,4.0,75,False,No,No,Yes,Yes,,"Breakfast, Brunch",Street,Yes,,Yes,No,Casual,Casual,Average,No,Yes,Free,No,,No,Yes,,2
gocciolina-durham,Gocciolina,"['italian', 'cocktailbars']",36.038914,-78.928953,NC,"2138 Campus Dr, Durham, NC 27708",4370.277526617251,4.0,67,False,Yes,No,No,Yes,,Dinner,Private Lot,Yes,,No,No,Casual,Casual,Average,Full Bar,No,Free,No,,Yes,,,2
satisfaction-restaurant-and-bar-durham-2,Satisfaction Restaurant and Bar,"['pizza', 'bars']",36.0002208819941,-78.9097630977631,NC,"2138 Campus Dr, Durham, NC 27708",2112.1820697551543,3.0,61,False,No,No,Yes,Yes,,"Lunch, Dinner, Late Night",Street,No,Yes,Yes,Yes,Casual,Casual,Loud,Full Bar,Yes,Free,Yes,,Yes,No,,2
fishmongers-restaurant-and-oyster-bar-durham,Fishmonger's Restaurant and Oyster Bar,"['seafood', 'bars']",35.999745219801,-78.9085332626348,NC,"2138 Campus Dr, Durham, NC 27708",2222.2132148678056,3.0,86,False,No,No,Yes,Yes,,Lunch,"Street, Private Lot",Yes,Yes,Yes,Yes,Casual,Casual,Average,Full Bar,No,No,Yes,,Yes,No,,2
el-patron-mexican-grill-durham,El Patron Mexican Grill,['mexican'],36.0201324,-78.9474148,NC,"2138 Campus Dr, Durham, NC 27708",2599.250025860191,4.0,18,False,Yes,No,Yes,Yes,,Lunch,Private Lot,Yes,,Yes,Yes,Casual,Casual,Quiet,Full Bar,Yes,No,Yes,,Yes,,,1
el-corral-durham,El Corral,['mexican'],36.0317917,-78.9365997,NC,"2138 Campus Dr, Durham, NC 27708",3585.5288355222874,4.0,48,False,No,No,Yes,Yes,,Dinner,Private Lot,Yes,Yes,Yes,Yes,Casual,Casual,Average,Full Bar,No,No,Yes,,Yes,Yes,,2
g2b-restaurant-and-brewery-durham,G2B Restaurant & Brewery,"['gastropubs', 'newamerican']",35.9646416,-78.9546509,NC,"2138 Campus Dr, Durham, NC 27708",4344.90271979601,4.0,153,False,Yes,No,No,Yes,No,Dinner,Private Lot,No,Yes,No,Yes,Casual,Trendy,Average,Full Bar,Yes,Free,Yes,,Yes,No,,2
golden-pizza-and-subs-durham-3,Golden Pizza & Subs,"['pizza', 'sandwiches']",35.983196,-78.931076,NC,"2138 Campus Dr, Durham, NC 27708",1852.7101340668953,4.5,6,False,No,Yes,Yes,Yes,,,,Yes,,Yes,Yes,Casual,,Quiet,,,,,,,,,1
chiomas-ridic-african-joint-and-fried-chicken-durham,Chioma's Ridic African Joint & Fried Chicken,['african'],35.9773521,-78.9170074,NC,"2138 Campus Dr, Durham, NC 27708",2892.624987931978,5.0,1,False,No,No,No,No,,,,,,No,No,Formal (Jacket Required),,Loud,No,No,Free,Yes,,No,No,,4
mi-perú-durham,Mi Perú,"['peruvian', 'bars']",35.964813,-78.956398,NC,"2138 Campus Dr, Durham, NC 27708",4439.736148101682,4.0,25,False,No,No,Yes,Yes,,,,Yes,,Yes,Yes,Casual,Casual,Average,Beer & Wine Only,Yes,,Yes,,Yes,Yes,,2
graces-cafe-durham,Grace's Cafe,"['asianfusion', 'chinese', 'hotdogs']",35.999951808157,-78.9398574829102,NC,"2138 Campus Dr, Durham, NC 27708",596.0438621753107,3.5,25,False,No,Yes,Yes,Yes,,Lunch,,No,Yes,Yes,Yes,Casual,Casual,Average,No,No,Free,No,,No,No,No,1
only-burger-durham-3,Only Burger,['burgers'],35.9927216,-78.9039307,NC,"2138 Campus Dr, Durham, NC 27708",2749.5726872085916,4.0,14,False,No,No,Yes,Yes,,,,Yes,,Yes,Yes,Casual,,Loud,Beer & Wine Only,No,Free,Yes,,No,Yes,No,1
the-tavern-durham,The Tavern,"['tradamerican', 'sportsbars', 'burgers']",36.010208,-78.921119,NC,"2138 Campus Dr, Durham, NC 27708",1598.873380464866,3.0,29,False,No,No,Yes,Yes,,Late Night,Private Lot,Yes,,No,Yes,Casual,,Average,Full Bar,Yes,Free,Yes,,Yes,No,No,1
cuban-revolution-restaurant-and-bar-durham-3,Cuban Revolution Restaurant & Bar,"['cuban', 'tapas', 'sandwiches']",35.992825,-78.905022,NC,"2138 Campus Dr, Durham, NC 27708",2656.023407179783,2.5,235,False,Yes,No,Yes,Yes,,Dinner,"Garage, Street",Yes,Yes,Yes,Yes,Casual,Trendy,Average,Full Bar,Yes,Free,Yes,Yes,Yes,Yes,,2
bali-hai-restaurant-durham,Bali Hai Restaurant,['mongolian'],36.011284,-78.922211,NC,"2138 Campus Dr, Durham, NC 27708",1648.2005830725238,3.5,64,False,No,No,No,Yes,,"Lunch, Dinner",Private Lot,Yes,Yes,Yes,Yes,Casual,Casual,Average,Beer & Wine Only,No,No,No,,Yes,No,,1
dragon-gate-durham,Dragon Gate,['restaurants'],35.9876595,-78.9275818,NC,"2138 Campus Dr, Durham, NC 27708",1437.705549765539,3.0,15,False,,Yes,Yes,Yes,,Dinner,,,,,,Casual,,,,No,,,,No,,,1
international-delights-durham,International Delights,"['mideastern', 'sandwiches']",36.009163,-78.921745,NC,"2138 Campus Dr, Durham, NC 27708",1455.6513603885435,3.5,44,False,No,No,Yes,Yes,,Lunch,Street,Yes,Yes,Yes,Yes,Casual,Divey,Quiet,No,Yes,Free,No,,No,Yes,,1
mami-noras-rotisserie-durham,Mami Nora's Rotisserie,['peruvian'],36.018238,-78.888425,NC,"2138 Campus Dr, Durham, NC 27708",4523.92984066553,4.0,112,False,No,No,Yes,Yes,,"Lunch, Dinner",Private Lot,Yes,Yes,Yes,No,Casual,,Average,No,No,No,Yes,,No,Yes,,1
ninth-street-bakery-durham-2,Ninth Street Bakery,"['bakeries', 'sandwiches', 'breakfast_brunch']",35.996829,-78.902331,NC,"2138 Campus Dr, Durham, NC 27708",2799.3027162405187,3.5,46,False,No,No,Yes,Yes,No,Lunch,"Street, Private Lot",Yes,Yes,Yes,Yes,Casual,Casual,Average,Beer & Wine Only,Yes,Free,No,Yes,No,Yes,,1
james-joyce-irish-pub-durham,James Joyce Irish Pub,"['pubs', 'irish']",36.0007401,-78.9098511,NC,"2138 Campus Dr, Durham, NC 27708",2097.303966886364,3.5,69,False,No,No,Yes,Yes,,"Lunch, Dinner, Late Night",Street,Yes,Yes,No,Yes,Casual,Casual,Average,Full Bar,Yes,Free,Yes,,Yes,Yes,,2
devines-restaurant-and-sports-bar-durham,Devines Restaurant and Sports Bar,"['sportsbars', 'burgers']",36.000458,-78.909302,NC,"2138 Campus Dr, Durham, NC 27708",2144.987683387794,3.5,23,False,No,No,Yes,Yes,,"Lunch, Dinner",Street,Yes,Yes,No,Yes,Casual,Casual,Average,Full Bar,Yes,,Yes,,Yes,,No,1
sitar-indian-cuisine-durham,Sitar Indian Cuisine,"['indpak', 'pakistani']",35.971703172271,-78.9506101235747,NC,"2138 Campus Dr, Durham, NC 27708",3489.9298359866625,3.5,103,False,Yes,No,Yes,Yes,,"Lunch, Dinner",Private Lot,No,Yes,Yes,Yes,Casual,Casual,Average,Full Bar,No,No,No,,Yes,Yes,,2
talk-of-the-town-restaurant-durham,Talk of the Town Restaurant,['restaurants'],35.99464,-78.900475,NC,"2138 Campus Dr, Durham, NC 27708",3001.9693422088244,5.0,1,False,,,,,,,,,Yes,,Yes,Casual,,,Full Bar,,,,,,,,
skewers-bar-and-grill-durham-2,Skewers Bar and Grill,"['sportsbars', 'tradamerican']",36.0009003,-78.9112473,NC,"2138 Campus Dr, Durham, NC 27708",1981.8604586228732,3.5,13,False,No,No,Yes,Yes,,,,Yes,,No,Yes,Casual,,Very Loud,Full Bar,Yes,No,Yes,,Yes,,,2
smash-hit-hotdogs-durham-2,Smash Hit Hotdogs,"['streetvendors', 'hotdog']",36.0065117,-78.9222336,NC,"2138 Campus Dr, Durham, NC 27708",1241.9984639794461,5.0,1,False,,,,,,,,,,,Yes,,,,,,,,,No,,,
sake-bomb-durham-2,Sake Bomb,"['asianfusion', 'sushi']",35.9638685875838,-78.9582324541985,NC,"2138 Campus Dr, Durham, NC 27708",4581.493675006208,4.0,119,False,Yes,No,Yes,Yes,,Dinner,Private Lot,No,,Yes,Yes,Casual,Trendy,Average,Full Bar,No,No,Yes,,Yes,No,,2
the-loop-pizza-grill-durham,The Loop Pizza Grill,"['pizza', 'burgers']",36.0008545038551,-78.9389133453369,NC,"2138 Campus Dr, Durham, NC 27708",524.9364334224349,3.5,17,False,No,Yes,Yes,Yes,,,,Yes,,Yes,Yes,Casual,,Average,No,Yes,Free,Yes,,No,No,No,1
tripps-restaurant-durham,Tripps Restaurant,['tradamerican'],36.0173607,-78.9069977,NC,"2138 Campus Dr, Durham, NC 27708",3065.6382837095166,3.0,20,False,Yes,No,Yes,Yes,,Lunch,Private Lot,Yes,,Yes,Yes,Casual,Casual,Average,Full Bar,No,Free,Yes,,Yes,No,,2
piedmont-restaurant-durham,Piedmont Restaurant,"['newamerican', 'southern']",35.999561,-78.901817,NC,"2138 Campus Dr, Durham, NC 27708",2826.403150410815,3.5,186,False,Yes,No,No,Yes,,Dinner,Street,Yes,Yes,No,Yes,Casual,Trendy,Average,Full Bar,No,No,No,,Yes,,,3
texas-roadhouse-durham,Texas Roadhouse,"['steak', 'bbq', 'tradamerican']",36.0294369964725,-78.9226905376645,NC,"2138 Campus Dr, Durham, NC 27708",3433.0915383351125,3.5,27,False,Yes,No,Yes,Yes,,Dinner,Private Lot,No,No,Yes,Yes,Casual,Casual,Loud,Full Bar,No,No,Yes,,Yes,No,,2
triangle-raw-foods-durham,Triangle Raw Foods,"['raw_food', 'foodtrucks', 'vegan']",35.96521,-78.945885,NC,"2138 Campus Dr, Durham, NC 27708",4007.300066277334,4.5,17,False,No,Yes,Yes,Yes,,,,Yes,,Yes,Yes,Casual,,Average,No,Yes,No,No,,No,Yes,,3
happy-china-durham,Happy China,['chinese'],35.974506,-78.925377,NC,"2138 Campus Dr, Durham, NC 27708",2896.2979851237606,4.0,91,False,Yes,No,Yes,Yes,,"Lunch, Dinner",Private Lot,No,,Yes,Yes,Casual,Casual,Quiet,Full Bar,Yes,No,Yes,,Yes,Yes,,2
university-club-durham,University Club,['tradamerican'],35.9718399,-78.9592972,NC,"2138 Campus Dr, Durham, NC 27708",3891.118924480698,4.5,5,False,Yes,Yes,Yes,Yes,,,"Garage, Private Lot",No,Yes,No,Yes,Dressy,,Average,Full Bar,No,Free,Yes,No,Yes,Yes,,3
jade-buffet-durham,Jade Buffet,['buffets'],36.0195523,-78.91389,NC,"2138 Campus Dr, Durham, NC 27708",2805.2635147136693,3.5,25,False,No,No,Yes,Yes,,Brunch,,Yes,,Yes,Yes,Casual,,Average,No,No,No,No,,Yes,Yes,,2
the-terrace-cafe-duke-gardens-durham,The Terrace Cafe - Duke Gardens,['cafes'],36.0012398,-78.9303055,NC,"2138 Campus Dr, Durham, NC 27708",257.2367814799416,3.5,3,False,,No,,Yes,,,,,,Yes,No,Casual,,Quiet,,Yes,Free,No,,No,,,1
china-king-durham,China King,['chinese'],36.031719,-78.936607,NC,"2138 Campus Dr, Durham, NC 27708",3585.5288355222874,3.5,17,False,No,No,Yes,Yes,,Dinner,Private Lot,Yes,,Yes,No,Casual,,Quiet,No,No,No,No,,No,Yes,,1
hong-kong-chinese-restaurant-durham,Hong Kong Chinese Restaurant,['dimsum'],36.0335884,-78.9295807,NC,"2138 Campus Dr, Durham, NC 27708",3772.6915923734286,3.5,89,False,No,No,Yes,Yes,,Lunch,Private Lot,No,Yes,Yes,Yes,Casual,"Divey, Casual",Average,No,No,No,No,,Yes,,,2
randys-pizza-durham-5,Randy's Pizza,"['pizza', 'sandwiches']",36.01935736835,-78.9136067032814,NC,"2138 Campus Dr, Durham, NC 27708",2805.2635147136693,3.5,35,False,No,Yes,Yes,Yes,,Lunch,Private Lot,Yes,Yes,Yes,Yes,Casual,,Average,No,No,No,Yes,,No,,,1
firehouse-subs-durham-2,Firehouse Subs,"['sandwiches', 'hotdogs', 'delis']",36.0095482,-78.9448776,NC,"2138 Campus Dr, Durham, NC 27708",1510.8990561194523,4.0,10,False,No,No,Yes,Yes,,,Private Lot,Yes,Yes,Yes,Yes,Casual,,,No,Yes,Free,Yes,No,No,,No,1
pomodoro-italian-kitchen-durham,Pomodoro Italian Kitchen,['italian'],36.0294495,-78.9365463,NC,"2138 Campus Dr, Durham, NC 27708",3321.3382054498916,3.0,34,False,Yes,No,Yes,Yes,,"Lunch, Dinner",Private Lot,No,Yes,Yes,Yes,Casual,Casual,Average,Full Bar,Yes,Free,Yes,,Yes,Yes,,2
burger-bach-durham,Burger Bach,['burgers'],36.0095215,-78.9227829,NC,"2138 Campus Dr, Durham, NC 27708",1332.678505552153,4.0,16,False,Yes,No,Yes,Yes,,,,Yes,,Yes,Yes,Casual,Casual,Loud,Full Bar,Yes,No,Yes,,Yes,,No,2
divinity-cafe-durham,Divinity Cafe,['cafeteria'],36.001568287611,-78.9389555901289,NC,"2138 Campus Dr, Durham, NC 27708",549.2807142836232,3.5,3,False,No,No,Yes,Yes,,,Garage,Yes,Yes,Yes,Yes,Casual,,Loud,No,Yes,Free,No,,No,Yes,,1
fox-student-center-at-the-fuqua-school-of-business-durham,Fox Student Center At the Fuqua School of Business,"['cafes', 'venues']",35.9989430219484,-78.9474532123507,NC,"2138 Campus Dr, Durham, NC 27708",1282.2433272210574,4.5,3,False,No,No,No,Yes,,,,Yes,,No,Yes,Casual,,Average,Beer & Wine Only,Yes,Free,Yes,,No,Yes,,1
the-saucy-crab-durham,The Saucy Crab,['seafood'],35.969809,-78.960126,NC,"2138 Campus Dr, Durham, NC 27708",4116.847726668861,3.0,67,False,Yes,No,Yes,Yes,,Dinner,Private Lot,No,,Yes,Yes,Casual,Casual,Average,Full Bar,No,No,Yes,,Yes,,,2
brueggers-bagels-durham-3,Bruegger's Bagels,"['bagels', 'breakfast_brunch', 'sandwiches']",36.0074043,-78.9220581,NC,"2138 Campus Dr, Durham, NC 27708",1323.2549397439464,3.0,18,False,No,No,Yes,Yes,,Breakfast,Street,Yes,No,Yes,Yes,Casual,,Average,No,No,Free,No,,No,Yes,,1
the-district-durham,The District,['newamerican'],35.9921608,-78.9051361,NC,"2138 Campus Dr, Durham, NC 27708",2652.9908754533,3.5,3,False,Yes,,No,Yes,,,,,Yes,No,,Casual,,Quiet,,No,,,,Yes,,,2
dragon-express-durham,Dragon Express,['chinese'],36.01935736835,-78.9136067032814,NC,"2138 Campus Dr, Durham, NC 27708",2813.821421652757,3.5,13,False,No,No,Yes,Yes,,"Lunch, Dinner",Private Lot,Yes,,Yes,Yes,Casual,,Quiet,No,No,Free,No,,No,,,1
cookout-durham-2,Cookout,"['burgers', 'hotdogs']",35.9668389568632,-78.9545378834009,NC,"2138 Campus Dr, Durham, NC 27708",4132.493060041897,4.5,12,False,No,No,Yes,Yes,,Dessert,,Yes,,Yes,Yes,Casual,,Average,No,No,No,No,,No,,Yes,1
saladelia-cafe-durham,Saladelia Cafe,"['mediterranean', 'sandwiches', 'cafes']",35.964649,-78.957458,NC,"2138 Campus Dr, Durham, NC 27708",4453.1482783956135,3.5,73,False,No,No,Yes,Yes,,Lunch,Private Lot,Yes,Yes,Yes,Yes,Casual,Casual,Average,No,Yes,Free,No,,No,Yes,,1
papa-nizios-durham,Papa Nizio's,"['pizza', 'italian', 'chicken_wings']",36.0187214561277,-78.9460072473602,NC,"2138 Campus Dr, Durham, NC 27708",2400.659882954133,3.5,2,False,No,Yes,Yes,Yes,No,,,No,Yes,Yes,Yes,,,,No,No,No,Yes,No,No,No,,1
chicken-hut-durham,Chicken Hut,"['southern', 'soulfood']",35.9631765,-78.9076094,NC,"2138 Campus Dr, Durham, NC 27708",4676.3756241751,4.5,16,False,No,No,Yes,No,,Lunch,Private Lot,No,,Yes,Yes,Casual,Divey,Average,No,No,No,No,,No,Yes,,1
au-bon-pain-durham,Au Bon Pain,['cafes'],36.0008371444199,-78.9409303665161,NC,"2138 Campus Dr, Durham, NC 27708",702.3981221614988,3.5,10,False,No,No,Yes,Yes,,,Garage,Yes,,Yes,Yes,Casual,Casual,Loud,No,Yes,Free,No,,No,Yes,,1
koumi-japanese-restaurant-durham,Koumi Japanese Restaurant,"['japanese', 'sushi']",36.0367813,-78.8952179,NC,"2138 Campus Dr, Durham, NC 27708",5351.385082329618,4.5,52,False,Yes,Yes,Yes,Yes,,Lunch,Private Lot,No,Yes,Yes,Yes,Casual,Casual,Average,Beer & Wine Only,No,Free,Yes,,Yes,Yes,,1
kurama-japanese-seafood-and-steak-house-sushi-bar-durham-2,Kurama Japanese Seafood & Steak House Sushi Bar,"['japanese', 'sushi']",35.9709211625433,-78.9522171020508,NC,"2138 Campus Dr, Durham, NC 27708",3633.566133928526,3.5,49,False,Yes,No,Yes,Yes,,Dinner,Private Lot,Yes,Yes,Yes,Yes,Casual,Casual,Average,Full Bar,No,No,Yes,,Yes,,,2
twisted-noodles-durham,Twisted Noodles,['thai'],35.964611,-78.957456,NC,"2138 Campus Dr, Durham, NC 27708",4475.316568783375,3.5,102,False,No,No,Yes,Yes,,"Lunch, Dinner",Private Lot,Yes,Yes,Yes,Yes,Casual,Casual,Average,Beer & Wine Only,No,No,No,,Yes,Yes,,2
biscuitville-durham-5,Biscuitville,['breakfast_brunch'],35.9745903,-78.9340363,NC,"2138 Campus Dr, Durham, NC 27708",2824.823288205434,3.5,11,False,No,No,Yes,Yes,,Breakfast,Private Lot,,Yes,Yes,Yes,Casual,Casual,Average,No,No,,Yes,,No,Yes,,1
tonali-durham,Tonali,['mexican'],35.956894,-78.955862,NC,"2138 Campus Dr, Durham, NC 27708",5183.522826757382,4.0,101,False,Yes,No,Yes,Yes,,Dinner,Private Lot,Yes,Yes,Yes,Yes,Casual,Casual,Quiet,Full Bar,No,No,No,,Yes,,,2
hanu-truck-durham,Hanu Truck,"['foodtrucks', 'korean']",35.995418548584,-78.8964385986328,NC,"2138 Campus Dr, Durham, NC 27708",3178.737629917104,5.0,12,False,No,No,Yes,Yes,,Late Night,,,,Yes,Yes,Casual,Casual,Quiet,No,Yes,No,No,,No,Yes,,1
dang-good-dogs-durham,Dang Good Dogs,"['streetvendors', 'hotdog', 'foodstands']",35.9968964537381,-78.8990020751953,NC,"2138 Campus Dr, Durham, NC 27708",3096.1462806868576,4.0,5,False,Yes,Yes,Yes,Yes,,,,,Yes,Yes,Yes,Casual,,Average,No,Yes,No,No,Yes,No,,,1
mama-dukes-durham,Mama Duke's,"['greek', 'foodtrucks']",35.995418548584,-78.8964385986328,NC,"2138 Campus Dr, Durham, NC 27708",3178.737629917104,4.5,14,False,No,No,Yes,Yes,,Lunch,,,,Yes,Yes,Casual,"Hipster, Casual",Average,No,No,No,No,,No,Yes,,1
jimmys-famous-hot-dogs-durham,Jimmy's Famous Hot Dogs,"['hotdog', 'burgers']",36.03064,-78.927315,NC,"2138 Campus Dr, Durham, NC 27708",3473.604569249829,3.0,30,False,No,No,Yes,No,No,Lunch,Private Lot,Yes,,Yes,No,Casual,Divey,Average,No,Yes,Free,Yes,,No,Yes,No,1
shooters-ii-durham,Shooters II,"['danceclubs', 'newamerican']",36.0010452270508,-78.9095153808594,NC,"2138 Campus Dr, Durham, NC 27708",2138.5942295483183,3.0,23,False,No,No,No,Yes,,Late Night,Private Lot,,Yes,No,Yes,Casual,,Very Loud,Full Bar,No,,Yes,,No,Yes,,1
t-g-i-fridays-durham,T.G.I. Fridays,"['newamerican', 'sportsbars']",36.0095482,-78.9448776,NC,"2138 Campus Dr, Durham, NC 27708",1510.8990561194523,2.0,28,False,Yes,No,Yes,Yes,,Lunch,"Garage, Private Lot",Yes,Yes,Yes,Yes,Casual,,Average,Full Bar,Yes,No,Yes,,Yes,No,,2
201-restaurant-durham,201 Restaurant,['tradamerican'],35.9974594,-78.9023972,NC,"2138 Campus Dr, Durham, NC 27708",2814.3272243556967,3.5,2,False,No,No,,Yes,,,"Valet, Private Lot",,Yes,,,,,,Full Bar,No,Free,,No,Yes,,,
dales-indian-cuisine-durham-2,Dales Indian Cuisine,['indpak'],36.011284,-78.922211,NC,"2138 Campus Dr, Durham, NC 27708",1634.336981006801,3.0,56,False,Yes,Yes,Yes,Yes,,Dinner,Street,Yes,Yes,Yes,Yes,Casual,,Average,Full Bar,Yes,,No,,Yes,Yes,,2
panera-bread-durham-5,Panera Bread,"['sandwiches', 'salad', 'soup']",36.0095303308548,-78.9223206381456,NC,"2138 Campus Dr, Durham, NC 27708",1464.0141790222474,2.5,16,False,No,No,Yes,Yes,,Breakfast,,Yes,,Yes,Yes,Casual,,Average,No,Yes,Free,No,,No,Yes,,1
not-just-wings-durham,Not Just Wings,['chicken_wings'],35.9904785,-78.8931732,NC,"2138 Campus Dr, Durham, NC 27708",3748.6986019498645,5.0,4,False,No,No,Yes,Yes,,,,,,,Yes,Casual,,Quiet,,Yes,No,No,,No,Yes,,1
taqueria-lopez-durham,Taqueria Lopez,"['mexican', 'foodstands']",36.020184,-78.946815,NC,"2138 Campus Dr, Durham, NC 27708",2578.2849102392443,3.5,9,False,No,No,Yes,Yes,,,,,,Yes,Yes,Casual,,,Beer & Wine Only,Yes,,No,,Yes,,,1
bojangles-famous-chicken-n-biscuits-durham-5,Bojangles Famous Chicken 'n Biscuits,['hotdogs'],36.0219772160053,-78.9523237198591,NC,"2138 Campus Dr, Durham, NC 27708",3033.049195291139,4.5,11,False,No,No,Yes,Yes,,Brunch,,,,Yes,Yes,Casual,,Quiet,No,No,,No,,No,Yes,Yes,1
zaxbys-durham-2,Zaxby's,"['chicken_wings', 'hotdogs']",36.021758,-78.950539,NC,"2138 Campus Dr, Durham, NC 27708",2898.83802322189,3.5,8,False,No,No,Yes,Yes,,,,Yes,,Yes,Yes,Casual,,Average,No,No,Free,No,,No,Yes,Yes,1
pipers-deli-durham,Piper's Deli,['delis'],35.9652249024035,-78.945951461792,NC,"2138 Campus Dr, Durham, NC 27708",4007.384544971978,3.5,17,False,Yes,Yes,Yes,Yes,,Lunch,Private Lot,Yes,Yes,Yes,Yes,Casual,Casual,Average,Beer & Wine Only,Yes,Free,Yes,,Yes,Yes,,1
cracker-barrel-old-country-store-durham,Cracker Barrel Old Country Store,['southern'],36.024536,-78.95546,NC,"2138 Campus Dr, Durham, NC 27708",3404.651171877628,3.5,23,False,No,No,Yes,Yes,,"Breakfast, Brunch",Private Lot,Yes,Yes,Yes,Yes,Casual,Casual,Average,No,No,No,No,,Yes,No,,1
counting-house-durham,Counting House,"['cocktailbars', 'newamerican', 'lounges']",35.996067,-78.90187,NC,"2138 Campus Dr, Durham, NC 27708",2859.0296873014663,4.0,14,False,Yes,No,No,Yes,,,,Yes,,No,Yes,Dressy,Trendy,Average,Full Bar,No,No,No,,Yes,,,3
only-burger-durham-2,Only Burger,"['burgers', 'foodtrucks']",35.956211,-78.956085,NC,"2138 Campus Dr, Durham, NC 27708",5260.210852043014,4.0,217,False,No,No,Yes,Yes,,Lunch,Private Lot,Yes,Yes,Yes,Yes,Casual,Casual,Average,Beer & Wine Only,Yes,Free,Yes,,No,Yes,No,1
china-buffet-durham-3,China Buffet,['chinese'],35.9691811,-78.9517822,NC,"2138 Campus Dr, Durham, NC 27708",3808.871195314885,3.5,44,False,No,No,Yes,Yes,,"Lunch, Dinner",Private Lot,,Yes,Yes,Yes,Casual,Casual,Average,No,No,No,No,,Yes,,,2
shrimp-boats-durham,Shrimp Boats,"['seafood', 'southern']",35.973957,-78.929176,NC,"2138 Campus Dr, Durham, NC 27708",2850.04992906025,3.0,12,False,No,No,Yes,Yes,,Lunch,Private Lot,,,Yes,No,Casual,Casual,Average,No,No,Free,Yes,,No,Yes,,1
tacos-nacos-durham-2,Tacos Nacos,"['mexican', 'latin', 'ethnicmarkets']",35.96665,-78.945359,NC,"2138 Campus Dr, Durham, NC 27708",3840.2983175116838,5.0,5,False,No,No,Yes,Yes,No,,Private Lot,Yes,Yes,Yes,Yes,Casual,,Average,No,No,Free,Yes,,No,Yes,,1
saladelia-cafe-durham-2,Saladelia Cafe,['sandwiches'],35.9930663555861,-78.9042766392231,NC,"2138 Campus Dr, Durham, NC 27708",2703.2048443377594,2.5,11,False,No,No,Yes,Yes,,Lunch,,Yes,Yes,Yes,No,Casual,,Average,No,Yes,No,Yes,,No,,,1
la-superior-carniceria-durham-2,La Superior Carniceria,['mexican'],36.0339433397368,-78.8919607517747,NC,"2138 Campus Dr, Durham, NC 27708",5312.725256904873,4.5,49,False,No,No,Yes,Yes,,Lunch,Private Lot,No,Yes,Yes,Yes,Casual,Divey,Average,Beer & Wine Only,No,No,Yes,,No,No,,1
bull-street-gourmet-and-market-durham,Bull Street Gourmet & Market,"['sandwiches', 'breakfast_brunch', 'salad']",35.956193,-78.956087,NC,"2138 Campus Dr, Durham, NC 27708",5263.175578625704,4.0,54,False,No,Yes,Yes,Yes,,"Breakfast, Brunch",Private Lot,Yes,Yes,Yes,Yes,Casual,Casual,Average,Beer & Wine Only,Yes,Free,Yes,,No,Yes,,2
la-costeña-market-durham-2,La Costeña Market,"['grocery', 'mexican', 'ethnicmarkets']",36.0038320720196,-78.8993259519339,NC,"2138 Campus Dr, Durham, NC 27708",3167.8781258062895,4.0,4,False,No,No,,Yes,,,,,,,No,,,,,,,,,,,,1
rudinos-pizza-and-grinders-durham-2,Rudino's Pizza & Grinders,"['pizza', 'sandwiches']",36.0270882,-78.9162903,NC,"2138 Campus Dr, Durham, NC 27708",3520.9732142483567,3.5,15,False,No,No,Yes,Yes,,Lunch,Private Lot,Yes,Yes,Yes,Yes,Casual,,Average,Beer & Wine Only,Yes,,Yes,,No,Yes,,1
jcs-kitchen-durham,JC's Kitchen,['soulfood'],35.990154,-78.892685,NC,"2138 Campus Dr, Durham, NC 27708",3801.2920272782176,4.0,4,False,,,,Yes,,,,,,,Yes,,,,,No,,,,Yes,,,2
the-food-factory-durham,The Food Factory,['burgers'],36.00535,-78.92939,NC,"2138 Campus Dr, Durham, NC 27708",710.9691610073862,4.0,1,False,No,Yes,Yes,Yes,,,,,,Yes,Yes,Casual,,Quiet,Beer & Wine Only,Yes,Free,Yes,,No,Yes,No,1
carolina-ale-house-durham,Carolina Ale House,"['tradamerican', 'sportsbars']",35.968986,-78.956985,NC,"2138 Campus Dr, Durham, NC 27708",4039.4219893266322,3.0,67,False,No,No,Yes,Yes,,Dinner,Private Lot,Yes,,Yes,Yes,Casual,Casual,Loud,Full Bar,Yes,Free,Yes,,Yes,No,,2
el-cuscatleco-durham-2,El Cuscatleco,"['mexican', 'salvadoran']",35.965225,-78.97665,NC,"2138 Campus Dr, Durham, NC 27708",5478.096587158104,4.0,84,False,No,Yes,Yes,Yes,,"Lunch, Dinner",Private Lot,Yes,Yes,Yes,Yes,Casual,Casual,Average,Full Bar,No,No,Yes,,Yes,No,,1
joey-ds-ny-dogs-carrboro-3,Joey D's NY Dogs,['hotdog'],36.016473,-78.938957,NC,"2138 Campus Dr, Durham, NC 27708",1927.8980885881424,5.0,1,False,,No,Yes,No,,,,,Yes,,,,,,No,Yes,,,,,,,
the-dog-house-durham-6,The Dog House,"['hotdog', 'bbq']",36.022511,-78.918015,NC,"2138 Campus Dr, Durham, NC 27708",2875.975399240088,3.5,6,False,No,No,Yes,No,,Lunch,Private Lot,,,Yes,Yes,Casual,,Loud,No,No,No,No,,No,Yes,,1
mayflower-xvi-seafood-restaurant-durham,Mayflower XVI Seafood Restaurant,['seafood'],35.9715744703747,-78.9538065586689,NC,"2138 Campus Dr, Durham, NC 27708",3640.1950316286507,3.5,19,False,No,No,Yes,Yes,,"Lunch, Dinner",Private Lot,Yes,,Yes,Yes,Casual,Casual,Average,Beer & Wine Only,No,No,Yes,,Yes,Yes,,2
mount-fuji-durham,Mount Fuji,"['asianfusion', 'sushi']",35.999396297976,-78.8921356201172,NC,"2138 Campus Dr, Durham, NC 27708",3697.5598803546777,3.0,110,False,Yes,No,Yes,Yes,,Dinner,Street,Yes,Yes,Yes,Yes,Casual,Casual,Average,Full Bar,Yes,No,Yes,,Yes,No,,2
barbecue-heaven-durham,Barbecue Heaven,['bbq'],35.9851806610823,-78.8990309089422,NC,"2138 Campus Dr, Durham, NC 27708",3505.2694497228886,4.5,2,False,,,,,,,,,,,,,,,,,,Yes,,,,,
jimmy-johns-durham-3,Jimmy John's,['sandwiches'],36.007679,-78.9222946,NC,"2138 Campus Dr, Durham, NC 27708",1302.5418110595674,2.0,21,False,No,Yes,Yes,Yes,,,,Yes,,Yes,Yes,Casual,,Average,No,Yes,No,No,,No,Yes,,1
which-wich-durham-2,Which Wich,['sandwiches'],35.9927406311035,-78.903938293457,NC,"2138 Campus Dr, Durham, NC 27708",2748.9578024826433,2.5,13,False,No,No,Yes,Yes,,,,Yes,,Yes,No,Casual,,Loud,No,Yes,No,Yes,,No,Yes,,1
azteca-grill-durham,Azteca Grill,['mexican'],35.987118,-78.926018,NC,"2138 Campus Dr, Durham, NC 27708",1539.7860137324587,3.0,9,False,No,No,Yes,Yes,,,,,Yes,Yes,Yes,Casual,,Quiet,Beer & Wine Only,No,,Yes,,Yes,,,1
bulkogi-truck-durham,Bulkogi Truck,"['foodtrucks', 'korean']",35.995418548584,-78.8964385986328,NC,"2138 Campus Dr, Durham, NC 27708",3178.737629917104,4.5,10,False,No,No,Yes,Yes,,Lunch,,Yes,,Yes,Yes,Casual,,Loud,No,Yes,No,No,,No,,,1
golden-china-durham,Golden China,['chinese'],36.027092,-78.916328,NC,"2138 Campus Dr, Durham, NC 27708",3402.2409350677817,3.5,13,False,No,No,Yes,Yes,,Lunch,Private Lot,Yes,Yes,Yes,Yes,Casual,,Average,No,No,No,Yes,,Yes,No,,1
district-at-410-durham,District at 410,['newamerican'],35.9930039942265,-78.9043276011944,NC,"2138 Campus Dr, Durham, NC 27708",2640.9371512605585,3.0,2,False,Yes,,Yes,Yes,,,,,,,,Casual,,,No,No,,,,Yes,,,2
penn-pavilion-durham,Penn Pavilion,['food_court'],36.0001784,-78.9404885,NC,"2138 Campus Dr, Durham, NC 27708",654.0672473879268,3.0,2,False,No,No,Yes,Yes,,,,Yes,,Yes,Yes,Casual,,,No,No,,Yes,,No,No,,2
joes-diner-durham,Joe's Diner,"['diners', 'breakfast_brunch', 'hotdog']",35.9818611,-78.8777771,NC,"2138 Campus Dr, Durham, NC 27708",5371.796634096108,4.5,24,False,No,No,Yes,Yes,,Lunch,Private Lot,Yes,,Yes,Yes,Casual,Divey,Average,No,No,Free,Yes,,Yes,Yes,,1
ihop-durham,IHOP,['breakfast_brunch'],36.0292695686496,-78.9216872646475,NC,"2138 Campus Dr, Durham, NC 27708",3441.3553675028393,2.5,19,False,No,No,Yes,Yes,,"Breakfast, Brunch",Private Lot,,Yes,Yes,Yes,Casual,Casual,Average,No,No,Free,No,,Yes,No,,1
pitchfork-provisions-durham,Pitchfork Provisions,['newamerican'],36.0001411437988,-78.9385604858398,NC,"2138 Campus Dr, Durham, NC 27708",600.8706889412163,3.5,5,False,No,No,Yes,Yes,,Breakfast,,No,,Yes,Yes,Casual,,Loud,Beer & Wine Only,Yes,Free,Yes,,No,No,,2
guanajuato-restaurant-of-durham-durham,Guanajuato Restaurant of Durham,['mexican'],36.0178280324872,-78.8902128115296,NC,"2138 Campus Dr, Durham, NC 27708",4360.0831949484345,5.0,4,False,No,No,Yes,Yes,,,,No,,Yes,Yes,Casual,,Average,,No,,Yes,,,,,1
biscuitville-durham-2,Biscuitville,"['hotdogs', 'breakfast_brunch']",36.0167847,-78.9108429,NC,"2138 Campus Dr, Durham, NC 27708",2748.6526362131644,3.5,4,False,No,No,Yes,Yes,,Breakfast,Private Lot,,No,Yes,No,Casual,,,,No,,Yes,,No,,No,1
japan-express-durham-2,Japan Express,['restaurants'],36.0191541910172,-78.9459581673145,NC,"2138 Campus Dr, Durham, NC 27708",2415.633656277299,2.5,13,False,No,No,Yes,Yes,,,,Yes,,Yes,Yes,Casual,,Average,No,No,No,Yes,,No,No,,2
livs-durham,Liv's,"['foodtrucks', 'greek']",35.9974594,-78.9023972,NC,"2138 Campus Dr, Durham, NC 27708",2814.3272243556967,2.5,8,False,No,No,Yes,Yes,,Lunch,,Yes,,No,Yes,Casual,,Average,No,No,No,No,,No,Yes,,2
blue-express-durham,Blue Express,"['newamerican', 'food']",36.0041389,-78.9393234,NC,"2138 Campus Dr, Durham, NC 27708",941.9545874479933,3.5,8,False,No,No,Yes,Yes,,"Breakfast, Lunch",,Yes,,Yes,Yes,Casual,Casual,Average,No,Yes,Free,No,,No,No,,2
saigon-grill-durham,Saigon Grill,['vietnamese'],36.029026,-78.890625,NC,"2138 Campus Dr, Durham, NC 27708",5043.161582495831,3.5,88,False,No,No,Yes,Yes,,Lunch,Private Lot,Yes,Yes,Yes,Yes,Casual,Casual,Quiet,No,No,No,No,,Yes,No,,1
li-mings-global-mart-durham-2,Li Ming's Global Mart,"['grocery', 'chinese', 'ethnicmarkets']",35.9660492,-78.9624786,NC,"2138 Campus Dr, Durham, NC 27708",4638.398017964948,4.0,97,False,No,No,Yes,Yes,,Lunch,Private Lot,Yes,Yes,Yes,Yes,Casual,Casual,Average,No,No,No,Yes,,No,No,,1
moes-southwest-grill-durham-2,Moe's Southwest Grill,"['tex-mex', 'mexican']",35.992722,-78.903938,NC,"2138 Campus Dr, Durham, NC 27708",2749.5726872085916,3.0,5,False,No,Yes,Yes,Yes,No,,"Garage, Street",Yes,Yes,Yes,Yes,Casual,,Loud,Beer & Wine Only,Yes,Free,Yes,No,No,Yes,,1
tops-china-durham-2,Top's China,['chinese'],35.986485555768,-78.9089376479387,NC,"2138 Campus Dr, Durham, NC 27708",2638.026014635152,4.5,3,False,No,No,Yes,Yes,,,,,,No,No,,,,No,,,,,,,,
waffle-house-durham-4,Waffle House,['diners'],36.0210022330284,-78.9502161741257,NC,"2138 Campus Dr, Durham, NC 27708",2800.9967085393873,3.5,16,False,No,No,Yes,Yes,,Breakfast,,Yes,,Yes,Yes,Casual,Divey,Very Loud,No,No,No,No,,Yes,No,,1
american-meltdown-durham,American Meltdown,"['sandwiches', 'foodtrucks']",35.995418548584,-78.8964385986328,NC,"2138 Campus Dr, Durham, NC 27708",3178.737629917104,4.0,56,False,No,No,Yes,Yes,,Lunch,,No,,Yes,Yes,Casual,Hipster,Average,No,No,No,No,,No,Yes,,1
baja-shack-durham,Baja Shack,['mexican'],36.019207,-78.909798,NC,"2138 Campus Dr, Durham, NC 27708",3019.3381966909515,4.0,1,False,No,No,Yes,Yes,,,,,,Yes,No,,,,,,,,,No,,,
biscuitville-durham-3,Biscuitville,['breakfast_brunch'],36.0178299,-78.9426651,NC,"2138 Campus Dr, Durham, NC 27708",2171.0512721211226,2.5,9,False,No,No,Yes,Yes,,Breakfast,Private Lot,,,Yes,Yes,Casual,,Average,No,No,No,Yes,,No,No,,1
spartacus-restaurant-durham,Spartacus Restaurant,"['greek', 'mediterranean']",35.967976,-78.960503,NC,"2138 Campus Dr, Durham, NC 27708",4315.606159033004,3.5,90,False,Yes,No,Yes,Yes,,"Lunch, Dinner",Private Lot,No,Yes,Yes,Yes,Casual,Casual,Average,Full Bar,Yes,Free,Yes,,Yes,Yes,,2
cajun-cafe-and-grill-durham,Cajun Cafe & Grill,['cajun'],36.017212,-78.910263,NC,"2138 Campus Dr, Durham, NC 27708",2801.7368610613444,4.0,1,False,,,Yes,Yes,,,,,,,,,,,,No,No,No,,,,,1
bennett-pointe-grill-durham,Bennett Pointe Grill,"['diners', 'tradamerican']",36.0327797,-78.9796143,NC,"2138 Campus Dr, Durham, NC 27708",5511.782103293953,3.5,26,False,Yes,No,Yes,Yes,,"Lunch, Dinner",Private Lot,No,Yes,Yes,Yes,Casual,Casual,Average,Full Bar,No,No,Yes,,Yes,Yes,,2
pops-backdoor-pizza-and-calzones-durham,Pop's Backdoor Pizza and Calzones,"['pizza', 'italian']",35.956211,-78.956085,NC,"2138 Campus Dr, Durham, NC 27708",5260.210852043014,3.5,62,False,No,Yes,Yes,Yes,,Dinner,Private Lot,Yes,Yes,Yes,Yes,Casual,Casual,Average,Beer & Wine Only,Yes,Free,Yes,,No,Yes,,2
roys-kountry-kitchen-durham,Roy's Kountry Kitchen,['southern'],35.9692383,-78.9026413,NC,"2138 Campus Dr, Durham, NC 27708",4369.729113128964,4.5,3,False,,,Yes,Yes,,,,,,Yes,,,,Average,,,,,,,,,
ichiban-hibachi-supreme-buffet-durham,Ichiban Hibachi Supreme Buffet,"['japanese', 'buffets', 'chinese']",36.016449,-78.8860092,NC,"2138 Campus Dr, Durham, NC 27708",4606.037909066059,3.5,14,False,Yes,No,Yes,Yes,No,,Private Lot,No,Yes,Yes,Yes,Casual,,Average,No,No,No,No,No,Yes,No,,2
mcdonalds-durham-15,McDonald's,"['hotdogs', 'burgers']",36.0295430700015,-78.9261081442237,NC,"2138 Campus Dr, Durham, NC 27708",3372.756775179581,3.5,3,False,No,No,Yes,Yes,,,,Yes,,Yes,Yes,Casual,,Average,No,No,Free,Yes,,No,No,Yes,1
winkies-hot-dogs-durham,Winkie's Hot Dogs,"['hotdog', 'foodstands']",35.9962997,-78.9015623,NC,"2138 Campus Dr, Durham, NC 27708",2875.296761810274,4.0,1,False,,,,,,,,,,,,,,,,,,,,,,,
randys-pizza-durham-4,Randy's Pizza,['pizza'],35.9598984864415,-78.9584895094192,NC,"2138 Campus Dr, Durham, NC 27708",4981.350616386015,3.5,44,False,No,Yes,Yes,Yes,,Lunch,Private Lot,Yes,Yes,Yes,Yes,Casual,Casual,Average,No,Yes,Free,Yes,,No,Yes,,1
food-for-life-supreme-restaurant-durham,Food For Life Supreme Restaurant,['newamerican'],36.038914,-78.928955,NC,"2138 Campus Dr, Durham, NC 27708",4370.277526617251,3.0,7,False,No,,Yes,Yes,,,Private Lot,,,Yes,No,Casual,,,No,No,,,,No,,,1
dr-noodle-durham,Dr Noodle,"['foodtrucks', 'asianfusion']",35.9940329,-78.898619,NC,"2138 Campus Dr, Durham, NC 27708",3178.737629917104,3.5,3,False,No,No,,Yes,,,,,,,No,Casual,,,No,,No,No,,,,,1
toreros-mexican-restaurant-durham,Toreros Mexican Restaurant,['mexican'],35.9995689,-78.9082642,NC,"2138 Campus Dr, Durham, NC 27708",2243.0505745808923,3.0,48,False,No,No,Yes,Yes,,Lunch,Street,Yes,Yes,Yes,Yes,Casual,Casual,Average,Full Bar,No,Free,Yes,,Yes,,,1
chamas-churrascaria-durham,Chamas Churrascaria,"['brazilian', 'steak']",35.9998573218896,-78.9105169392395,NC,"2138 Campus Dr, Durham, NC 27708",2043.7877627127489,3.5,67,False,Yes,No,No,Yes,,Dinner,Street,No,Yes,No,Yes,Casual,Classy,Average,Full Bar,Yes,,No,,Yes,,,3
dolce-vita-durham,Dolce Vita,"['coffee', 'sandwiches']",36.0027900569136,-78.9433765411377,NC,"2138 Campus Dr, Durham, NC 27708",972.3064890444689,3.5,4,False,No,No,Yes,No,,,,Yes,,No,No,Casual,,,No,,,No,,No,,,1
pan-pan-diner-durham,Pan Pan Diner,['seafood'],36.017212,-78.910263,NC,"2138 Campus Dr, Durham, NC 27708",2801.7368610613444,3.0,11,False,Yes,No,Yes,Yes,,Dinner,Garage,,Yes,Yes,Yes,Casual,Casual,Average,Beer & Wine Only,Yes,No,No,No,Yes,Yes,,1
palermo-deli-durham,Palermo Deli,"['delis', 'sandwiches']",35.9999313,-78.9101563,NC,"2138 Campus Dr, Durham, NC 27708",2112.3040638748516,3.0,4,False,No,Yes,Yes,Yes,,,,,,No,No,Casual,,Quiet,No,No,,No,,No,Yes,,1
mcdonalds-durham-6,McDonald's,"['hotdogs', 'burgers']",36.001462,-78.941299,NC,"2138 Campus Dr, Durham, NC 27708",749.5164932552085,3.5,3,False,No,No,Yes,Yes,,,,Yes,,Yes,Yes,Casual,,,No,,,Yes,,No,,No,1
big-daddys-grill-durham,Big Daddy's Grill,"['hotdog', 'soulfood', 'burgers']",35.9999504,-78.8960724,NC,"2138 Campus Dr, Durham, NC 27708",3342.825728435212,4.0,1,False,,,,,,,,,,No,,Casual,,,,,,No,,,,,
the-freeman-center-durham,The Freeman Center,['kosher'],36.0008316,-78.9221591,NC,"2138 Campus Dr, Durham, NC 27708",1003.4856726276753,3.0,1,False,,,,Yes,,,,,,,Yes,Casual,,,,,,,,,,,
jakes-wayback-burgers-durham-2,Jake's Wayback Burgers,"['hotdogs', 'burgers']",36.0192186453668,-78.9099562168121,NC,"2138 Campus Dr, Durham, NC 27708",3010.6888627313983,2.5,4,False,No,No,Yes,Yes,,,,,,Yes,No,Casual,,Average,No,No,No,No,,No,No,,2
quattro-by-piazza-durham,Quattro by Piazza,['italian'],35.9997607043726,-78.9097241907379,NC,"2138 Campus Dr, Durham, NC 27708",2115.0775093688526,3.0,82,False,Yes,No,Yes,Yes,,Dinner,"Street, Validated",No,Yes,Yes,Yes,Casual,Casual,Average,Full Bar,Yes,No,No,,Yes,Yes,,2
maggies-conscious-vegan-cuisine-durham-2,Maggie's Conscious Vegan Cuisine,"['healthmarkets', 'vegan', 'ethnicmarkets']",35.973935,-78.925094,NC,"2138 Campus Dr, Durham, NC 27708",2964.0144482368937,4.5,3,False,,,,Yes,,,,,,,,,,,,,,,,,,,
bel-gusto-d-italia-durham,Bel Gusto D'italia,['restaurants'],36.0111389,-78.9530411,NC,"2138 Campus Dr, Durham, NC 27708",2185.407732928808,2.0,5,False,,,,Yes,,,,,,Yes,,,,,,Yes,,,,Yes,,,2
tasty-haven-restaurant-durham,Tasty Haven Restaurant,"['southern', 'soulfood']",36.006927,-78.885872,NC,"2138 Campus Dr, Durham, NC 27708",4334.967086804141,3.5,5,False,,,,,,,,,,Yes,No,,,,No,No,,,,,,,
local-in-motion-durham,Local In Motion,"['sandwiches', 'foodtrucks']",36.033618927002,-78.9823913574219,NC,"2138 Campus Dr, Durham, NC 27708",5500.604020210791,4.5,7,False,No,Yes,Yes,Yes,,,,Yes,,Yes,Yes,Casual,,,No,Yes,No,No,,,Yes,,2
cook-out-durham-5,Cook Out,['hotdogs'],35.9660263,-78.9543686,NC,"2138 Campus Dr, Durham, NC 27708",4237.548332125148,5.0,1,False,No,No,Yes,Yes,,,,,,Yes,Yes,Casual,,Average,No,No,No,No,,No,No,Yes,1
cafe-love-live-organic-vegan-eats-durham,Cafe Love-- Live Organic Vegan Eats,"['raw_food', 'vegan', 'gluten_free']",35.965209,-78.945882,NC,"2138 Campus Dr, Durham, NC 27708",4007.300066277334,5.0,4,False,No,Yes,Yes,Yes,,,,Yes,,Yes,Yes,Casual,,,No,,,,,,,,2
blu-seafood-and-bar-durham-3,Blu Seafood and Bar,"['bars', 'seafood']",36.0104732215405,-78.9228509366512,NC,"2138 Campus Dr, Durham, NC 27708",1539.2854749024993,4.0,1,False,Yes,,,,,,,,Yes,,,,,,Full Bar,,,,,,,,
cafe-de-novo-durham,Cafe De Novo,['cafes'],35.9998999536037,-78.9442475885153,NC,"2138 Campus Dr, Durham, NC 27708",1058.8487460853055,3.0,1,False,,,,,,,,,,,,,,,,,,,,,,,
waffle-house-durham-2,Waffle House,['restaurants'],36.0212021,-78.9502335,NC,"2138 Campus Dr, Durham, NC 27708",2845.049385729582,5.0,1,False,,,,,,,,,,,,,,,,,,,,,,,
the-dog-house-durham-2,The Dog House,['hotdog'],36.020897,-78.951408,NC,"2138 Campus Dr, Durham, NC 27708",2853.528727185925,3.0,5,False,No,No,Yes,Yes,,,,Yes,,Yes,No,Casual,,Average,No,No,No,No,,No,,,1
jamaican-mixup-durham,Jamaican Mixup,['caribbean'],35.982686,-78.899112,NC,"2138 Campus Dr, Durham, NC 27708",3609.920377870808,4.0,1,False,,,,,,,,,,,,,,,,,,,,,,,
pie-pushers-durham,Pie Pushers,"['pizza', 'foodtrucks']",35.995418548584,-78.8964385986328,NC,"2138 Campus Dr, Durham, NC 27708",3178.737629917104,4.0,66,False,No,No,Yes,Yes,,Lunch,,Yes,,Yes,Yes,Casual,Casual,Average,No,No,No,No,,No,,,1
costa-azul-restaurant-durham,Costa Azul Restaurant,"['mexican', 'latin']",36.0297871381044,-78.9269198477268,NC,"2138 Campus Dr, Durham, NC 27708",3319.112040195854,3.5,8,False,,No,Yes,Yes,,,,,,No,No,Casual,,Very Loud,,No,,,,Yes,,,2
brueggers-bagels-durham-4,Bruegger's Bagels,"['bagels', 'breakfast_brunch', 'sandwiches']",35.9608221799135,-78.9588515460491,NC,"2138 Campus Dr, Durham, NC 27708",4907.924333430477,3.5,15,False,No,No,Yes,Yes,,,,,,Yes,Yes,Casual,,Average,No,Yes,Free,No,,No,Yes,,1
sweet-and-savory-express-durham,Sweet & Savory Express,"['sandwiches', 'foodtrucks']",35.965153,-78.922295,NC,"2138 Campus Dr, Durham, NC 27708",3972.794539340535,3.5,2,False,No,,,,,,,,,,Yes,,,,,,,,,,,,1
grindage-durham,Grindage,['sandwiches'],35.95218,-78.94098,NC,"2138 Campus Dr, Durham, NC 27708",5336.804045069432,4.5,2,False,No,,Yes,Yes,,,,,,Yes,Yes,Casual,,Average,No,Yes,No,No,,No,,,1
china-king-chinese-restaurant-durham,China King Chinese Restaurant,['chinese'],36.0063782,-78.8841629,NC,"2138 Campus Dr, Durham, NC 27708",4418.323601486356,5.0,4,False,No,No,Yes,Yes,,,,No,,Yes,Yes,Casual,,Quiet,No,No,No,No,,No,,,1
nosh-jo-rae-cafe-durham,Nosh Jo Rae Cafe,['tradamerican'],35.99527,-78.896011,NC,"2138 Campus Dr, Durham, NC 27708",3385.8756938338784,3.5,2,False,,,,,,,,,,,,,,,,,,,,,,,
gg-restaurant-durham,Gg Restaurant,"['seafood', 'chicken_wings']",35.9848995710429,-78.8994956016541,NC,"2138 Campus Dr, Durham, NC 27708",3456.3422452689124,3.0,1,False,,Yes,Yes,,,,,,,,,Casual,,,,,,,,,,,
armadillo-grill-durham,Armadillo Grill,['tex-mex'],36.0184,-78.9213102,NC,"2138 Campus Dr, Durham, NC 27708",2333.397071654432,2.0,1,False,No,No,Yes,Yes,,,,,,Yes,Yes,Casual,,Loud,Full Bar,No,No,Yes,,No,No,,1
cafe-renaissance-durham,Cafe Renaissance,"['coffee', 'tradamerican']",35.9665867,-78.8953529,NC,"2138 Campus Dr, Durham, NC 27708",5022.805332009634,3.5,9,False,Yes,No,Yes,Yes,,,Private Lot,,,,Yes,Casual,,Average,Full Bar,Yes,Free,Yes,,Yes,,,1
la-fondita-durham,La Fondita,['restaurants'],36.016449,-78.8860092,NC,"2138 Campus Dr, Durham, NC 27708",4703.828647776511,5.0,1,False,No,,Yes,Yes,,,,,,No,No,Casual,,Loud,,No,,Yes,,Yes,,,1
hope-valley-diner-durham-2,Hope Valley Diner,['diners'],35.956228,-78.956062,NC,"2138 Campus Dr, Durham, NC 27708",5258.71403095581,3.5,7,False,Yes,No,Yes,Yes,,,,No,,Yes,Yes,Casual,,Average,,No,,Yes,,,Yes,,1
panda-express-durham,Panda Express,['chinese'],36.0018861293793,-78.9426080882549,NC,"2138 Campus Dr, Durham, NC 27708",861.4387789731209,2.5,7,False,No,No,Yes,Yes,,,,Yes,Yes,Yes,Yes,Casual,,Average,No,Yes,,No,,No,Yes,,1
honeybaked-durham,HoneyBaked,"['catering', 'sandwiches', 'delis']",35.9715577214956,-78.9503482729197,NC,"2138 Campus Dr, Durham, NC 27708",3582.5747185761547,3.5,5,False,No,No,Yes,Yes,,,Private Lot,,,Yes,Yes,Casual,,Quiet,No,No,No,No,,No,Yes,,1
chick-fil-a-durham-4,Chick-fil-A,['hotdogs'],36.0194271057844,-78.946591168642,NC,"2138 Campus Dr, Durham, NC 27708",2395.5822775689653,3.0,13,False,No,No,Yes,Yes,,,,Yes,,Yes,Yes,Casual,,,No,No,Free,No,,No,,Yes,1
bojangles-famous-chicken-n-biscuits-durham-10,Bojangles Famous Chicken 'n Biscuits,['hotdogs'],36.0303802,-78.9286804,NC,"2138 Campus Dr, Durham, NC 27708",3429.237949496275,3.0,8,False,No,No,Yes,Yes,,Brunch,Private Lot,,Yes,Yes,Yes,Casual,,Average,No,No,Free,No,,No,,Yes,1
ninth-street-coffee-shop-durham,Ninth Street Coffee Shop,"['cafes', 'coffee', 'bakeries']",36.008236,-78.9217,NC,"2138 Campus Dr, Durham, NC 27708",1390.680334182088,4.0,1,False,No,No,Yes,Yes,,,,,,Yes,Yes,Casual,,,,Yes,,No,,,,,1
jumbo-china-and-grill-vii-durham-2,Jumbo China & Grill VII,['chinese'],35.9608778357506,-78.9591995626688,NC,"2138 Campus Dr, Durham, NC 27708",4918.494272103657,3.0,9,False,No,Yes,Yes,Yes,,Lunch,,Yes,,Yes,No,Casual,,Average,,No,,Yes,,No,No,,1
golden-krust-caribbean-bakery-and-grill-durham,Golden Krust Caribbean Bakery and Grill,"['caribbean', 'bakeries']",36.0477638,-78.9056778,NC,"2138 Campus Dr, Durham, NC 27708",6107.1828865540265,3.5,30,False,No,No,Yes,Yes,,Lunch,Private Lot,,Yes,Yes,Yes,Casual,Casual,Average,No,No,Free,No,,No,Yes,,1
el-rodeo-mexican-restaurant-durham,El Rodeo Mexican Restaurant,['mexican'],35.9658140329697,-78.9617365588191,NC,"2138 Campus Dr, Durham, NC 27708",4563.724651991589,3.5,25,False,No,No,Yes,Yes,,Dinner,Private Lot,No,,Yes,Yes,Casual,Casual,Average,Full Bar,No,Free,Yes,,Yes,,,1
bbq-heaven-durham,BBQ Heaven,"['tradamerican', 'bbq', 'bars']",35.9855554997921,-78.8989075273275,NC,"2138 Campus Dr, Durham, NC 27708",3492.4775423140327,3.5,2,False,,No,Yes,Yes,,,,,,Yes,Yes,Casual,,Average,Beer & Wine Only,,,Yes,,,,,1
sheetz-durham-2,Sheetz,"['hotdogs', 'servicestations', 'convenience']",36.0195389,-78.9459305,NC,"2138 Campus Dr, Durham, NC 27708",2470.8451128550105,3.0,1,False,,,,,,,,,,,,,,,,,,,,,,,
neo-china-restaurant-durham,Neo-China Restaurant,['chinese'],35.964813,-78.956398,NC,"2138 Campus Dr, Durham, NC 27708",4436.553872206869,3.5,27,False,Yes,No,Yes,Yes,,Dinner,Private Lot,,,Yes,Yes,Casual,Casual,Quiet,Full Bar,No,,No,,Yes,,,2
dragon-inn-durham,Dragon Inn,['chinese'],36.0591680556536,-78.9290562272072,NC,"2138 Campus Dr, Durham, NC 27708",6560.441455766029,4.0,19,False,Yes,No,Yes,Yes,,Lunch,Street,Yes,,Yes,Yes,Casual,Casual,Average,No,No,No,No,,Yes,Yes,,2
american-hero-restaurant-durham,American Hero Restaurant,"['delis', 'newamerican']",36.017063,-78.890427,NC,"2138 Campus Dr, Durham, NC 27708",4304.85904022949,3.5,3,False,No,,Yes,Yes,,,,,,Yes,Yes,Casual,,,,No,,,,No,,,1
bonnie-jeans-take-out-durham,Bonnie Jean's Take Out,['breakfast_brunch'],35.9887513518333,-78.88836376369,NC,"2138 Campus Dr, Durham, NC 27708",4169.821623744761,4.0,1,False,,,,,,,,,,,,,,,,,,,,,,,
subway-durham-29,Subway,"['sandwiches', 'hotdogs']",35.987755,-78.899963,NC,"2138 Campus Dr, Durham, NC 27708",3276.7659926762167,5.0,1,False,,,,,,,,,,,,,,,,,,,,,,,
chick-fil-a-durham-8,Chick-fil-A,['hotdogs'],35.9649391,-78.9589386,NC,"2138 Campus Dr, Durham, NC 27708",4509.954592806637,4.0,6,False,No,No,Yes,Yes,,Breakfast,,,,Yes,No,Casual,,Loud,No,Yes,Free,No,,No,Yes,Yes,1
soomsoom-pita-pockets-durham,Soomsoom Pita Pockets,"['foodtrucks', 'mediterranean']",35.995418548584,-78.8964385986328,NC,"2138 Campus Dr, Durham, NC 27708",3178.737629917104,4.5,3,False,No,No,Yes,Yes,,,,,,,Yes,Casual,,,,,No,No,,,,,1
tripps-resturant-durham,Tripps Resturant,"['seafood', 'sandwiches']",36.0173607,-78.9069977,NC,"2138 Campus Dr, Durham, NC 27708",3065.6382837095166,2.0,1,False,,,,,,,,,,,,Casual,,,,,,,,,,,
subway-durham-32,Subway,"['sandwiches', 'hotdogs']",36.0166464803827,-78.889024592936,NC,"2138 Campus Dr, Durham, NC 27708",4397.574453806395,5.0,3,False,No,No,Yes,Yes,,,,Yes,,Yes,Yes,Casual,,,,No,Free,No,,,,No,1
hardees-durham,Hardees,['hotdogs'],35.975117,-78.935928,NC,"2138 Campus Dr, Durham, NC 27708",2742.1056091263968,2.0,4,False,No,No,Yes,Yes,,,,No,,No,No,Casual,,Average,No,No,No,No,,No,No,Yes,1
i-love-n-y-pizza-durham,I Love N Y Pizza,['pizza'],36.0092554986477,-78.9219946414232,NC,"2138 Campus Dr, Durham, NC 27708",1459.842439354681,1.0,2,False,,,,,,,,,,,,,,,,,,,,,,,1
blue-stingray-seafood-durham,Blue Stingray Seafood,['seafood'],36.0495727,-78.9046188,NC,"2138 Campus Dr, Durham, NC 27708",6107.1828865540265,4.0,12,False,No,No,Yes,Yes,,"Lunch, Dinner",Private Lot,Yes,,Yes,Yes,Casual,Divey,Average,Beer & Wine Only,No,,No,,No,,,2
ocean-ave-durham,Ocean Ave,['seafood'],35.998913,-78.886032,NC,"2138 Campus Dr, Durham, NC 27708",4247.654462058477,4.0,1,False,,,,,,,,,,,,,,,,,,,,,,,
pan-pan-durham,Pan-Pan,"['restaurants', 'nightlife']",36.047516,-78.928848,NC,"2138 Campus Dr, Durham, NC 27708",5324.307263148524,5.0,1,False,,,,,,,,,,,,,,,,,,,,,,,
chopstix-chinese-restaurant-durham,Chopstix Chinese Restaurant,['chinese'],36.016449,-78.8860092,NC,"2138 Campus Dr, Durham, NC 27708",4606.037909066059,3.0,4,False,,,Yes,Yes,,,,Yes,,Yes,Yes,Casual,,Quiet,,No,,No,,Yes,,,1
hibachi-grill-and-supreme-buffet-durham,Hibachi Grill & Supreme Buffet,"['chinese', 'japanese']",35.962059,-78.9790497,NC,"2138 Campus Dr, Durham, NC 27708",5854.702719996673,3.5,30,False,No,No,Yes,Yes,,"Lunch, Dinner",Private Lot,No,Yes,Yes,Yes,Casual,Casual,Average,No,No,No,No,,Yes,,,2
chick-fil-a-durham-2,Chick-fil-A,['hotdogs'],36.0422744750977,-78.8996429443359,NC,"2138 Campus Dr, Durham, NC 27708",5609.933195152988,4.0,9,False,No,No,Yes,Yes,,,,Yes,,Yes,Yes,Casual,Casual,Average,No,No,Free,No,,Yes,Yes,Yes,1
current-cafeteria-durham,Current Cafeteria,['soulfood'],36.029548,-78.889984,NC,"2138 Campus Dr, Durham, NC 27708",5108.7496445277,3.5,3,False,No,No,Yes,Yes,,,,,,Yes,Yes,Casual,,,No,No,,,,No,,,1
bojangles-durham-2,Bojangles',"['southern', 'hotdogs', 'breakfast_brunch']",35.9619043726028,-78.9779202317117,NC,"2138 Campus Dr, Durham, NC 27708",5821.402273568647,4.0,23,False,No,No,Yes,Yes,,"Breakfast, Lunch, Dinner",Private Lot,Yes,Yes,Yes,Yes,Casual,Casual,Average,No,No,No,No,,No,No,Yes,1
taqueria-mi-pueblo-durham,Taqueria Mi Pueblo,['mexican'],35.9944550693035,-78.8836605101824,NC,"2138 Campus Dr, Durham, NC 27708",4475.895272930753,5.0,1,False,,No,Yes,No,,,,,,Yes,Yes,Casual,,Average,Beer & Wine Only,No,No,Yes,,No,No,,1
sharkys-eat-and-8-durham,Sharky's Eat & 8,['pizza'],36.0323679,-78.982462,NC,"2138 Campus Dr, Durham, NC 27708",5722.357798580766,4.0,6,False,,,,Yes,,,,,,Yes,,Casual,,,,,,Yes,,Yes,,,1
searle-commons-restaurant-durham,Searle Commons Restaurant,['southern'],36.0056,-78.9385071,NC,"2138 Campus Dr, Durham, NC 27708",615.4987982708421,4.0,1,False,,,,,,,,,,,,,,,,,,,,,,,
papa-johns-pizza-durham-6,Papa John's Pizza,['pizza'],36.00166134872,-78.910932379839,NC,"2138 Campus Dr, Durham, NC 27708",2017.4266950000335,3.5,7,False,Yes,,Yes,Yes,,,,,,,No,,,,No,No,,,,,,,
new-tops-china-durham,New Top's China,['chinese'],35.9552116,-78.9939804,NC,"2138 Campus Dr, Durham, NC 27708",5336.804045069432,3.5,13,False,No,No,Yes,Yes,,,,Yes,,Yes,No,Casual,,Quiet,Beer & Wine Only,No,,No,,No,No,,1
twice-remembered-durham,Twice Remembered,"['antiques', 'restaurants']",36.032314,-78.929535,NC,"2138 Campus Dr, Durham, NC 27708",3634.529384835016,2.0,1,False,,,,,,,,,,,,,,,,,,,,,,,
taqueria-don-fily-durham,Taqueria Don Fily,['mexican'],35.983227,-78.890427,NC,"2138 Campus Dr, Durham, NC 27708",4266.8650696850655,4.0,1,False,,,Yes,Yes,,,,,,Yes,Yes,,,,,,,,,,,,
bull-city-store-and-grill-durham,Bull City Store & Grill,"['southern', 'soulfood', 'convenience']",35.998913,-78.886032,NC,"2138 Campus Dr, Durham, NC 27708",4247.654462058477,3.0,1,False,,,,,,,,,,,,,,,,,,,,,,,
subway-durham-23,Subway,"['sandwiches', 'hotdogs']",36.0077591,-78.9225082,NC,"2138 Campus Dr, Durham, NC 27708",1314.4353849269705,4.5,3,False,No,,,Yes,,,,,,Yes,Yes,,,,,Yes,,,,No,,,1
italian-pizzeria-restaurant-durham-3,Italian Pizzeria Restaurant,"['italian', 'pizza']",36.0580770426154,-78.9304066956078,NC,"2138 Campus Dr, Durham, NC 27708",6489.0924213595445,3.5,15,False,No,No,Yes,Yes,,Lunch,,No,Yes,Yes,Yes,Casual,Casual,Average,Beer & Wine Only,No,No,Yes,,Yes,,,2
the-dog-house-durham-4,The Dog House,['hotdog'],35.990224618318095,-78.8670294310681,NC,"2138 Campus Dr, Durham, NC 27708",6049.925725290142,4.5,3,False,,,,,,,,,,,No,Casual,,,,Yes,,,,,,,1
china-palace-restaurant-durham,China Palace Restaurant,['chinese'],35.948574,-78.969452,NC,"2138 Campus Dr, Durham, NC 27708",6561.717815654444,3.5,62,False,No,Yes,Yes,Yes,,Lunch,Private Lot,,Yes,Yes,Yes,Casual,Casual,Average,Beer & Wine Only,No,No,No,,Yes,Yes,,2
super-taqueria-durham-3,Super Taqueria,['mexican'],36.0552061,-78.9034271,NC,"2138 Campus Dr, Durham, NC 27708",6722.447395386374,5.0,9,False,No,No,Yes,Yes,,,,Yes,,Yes,Yes,Casual,,Loud,No,No,No,Yes,,No,Yes,,1
bojangles-famous-chicken-n-biscuits-durham-3,Bojangles Famous Chicken 'n Biscuits,['hotdogs'],36.0055732727051,-78.9353713989258,NC,"2138 Campus Dr, Durham, NC 27708",615.4987982708421,4.0,1,False,,,Yes,,,,,,,,,,,,No,,,,,,,,1
tokyo-express-durham-3,Tokyo Express,['japanese'],36.037533,-78.929909,NC,"2138 Campus Dr, Durham, NC 27708",4210.303704223417,2.5,6,False,No,No,Yes,Yes,,,,Yes,,No,Yes,Casual,,Average,,Yes,No,Yes,,,,,1
red-lobster-durham,Red Lobster,"['seafood', 'tradamerican']",35.9647789,-78.9731674,NC,"2138 Campus Dr, Durham, NC 27708",5295.744509892043,2.5,19,False,No,No,Yes,Yes,,Lunch,Private Lot,No,No,Yes,Yes,Casual,Casual,Average,Full Bar,No,,No,,Yes,No,,2
