id,name,categories,latitude,longitude,state,college,distance_from_college,rating,review_count,permanently_closed,TakesReservations,Delivery,Take-out,AcceptsCreditCards,AcceptsBitcoin,GoodFor,Parking,BikeParking,WheelchairAccessible,GoodforKids,GoodforGroups,Attire,Ambience,NoiseLevel,Alcohol,OutdoorSeating,Wi-Fi,HasTV,DogsAllowed,WaiterService,Caters,Drive-Thru,Price
tigerlily-berkeley-berkeley,Tigerlily Berkeley,"['bars', 'newamerican']",37.8797404028451,-122.26899094044,CA,"103 Sproul hall Berkeley, CA 94720",1448.5908115092943,4.0,53,False,Yes,No,No,Yes,,Brunch,Street,Yes,Yes,No,Yes,Casual,Trendy,Average,Full Bar,Yes,Free,Yes,,Yes,,,2
simply-bowl-berkeley,Simply Bowl,"['japanese', 'asianfusion']",37.8720016,-122.2670135,CA,"103 Sproul hall Berkeley, CA 94720",786.2736476187873,4.5,88,False,No,No,Yes,Yes,,Lunch,Street,Yes,,Yes,Yes,Casual,Casual,Average,No,No,Free,Yes,,No,Yes,,1
kiraku-berkeley,Kiraku,"['japanese', 'tapasmallplates', 'tapas']",37.863683,-122.258976,CA,"103 Sproul hall Berkeley, CA 94720",647.8099851673128,4.5,445,False,Yes,No,No,Yes,,Dinner,Street,No,,No,No,Casual,Casual,Average,Beer & Wine Only,No,No,No,No,Yes,No,,2
gather-berkeley,Gather,"['newamerican', 'breakfast_brunch']",37.8694781027984,-122.266114248013,CA,"103 Sproul hall Berkeley, CA 94720",643.9640049817898,4.0,1536,False,Yes,No,No,Yes,,Dinner,"Garage, Street",Yes,Yes,No,Yes,Casual,Trendy,Average,Full Bar,Yes,No,No,,Yes,No,,2
koja-kitchen-berkeley,KoJa Kitchen,"['asianfusion', 'japanese', 'korean']",37.8670846,-122.2587409,CA,"103 Sproul hall Berkeley, CA 94720",269.35614540318124,4.0,209,False,No,No,Yes,Yes,,Lunch,Street,No,Yes,Yes,Yes,Casual,Casual,Average,No,No,No,No,No,No,Yes,,1
smokes-poutinerie-berkeley,Smoke's Poutinerie,"['comfortfood', 'hotdogs', 'poutineries']",37.8678067612351,-122.25806995227,CA,"103 Sproul hall Berkeley, CA 94720",198.99362350243032,4.0,229,False,No,Yes,Yes,Yes,,"Lunch, Late Night",Street,Yes,Yes,Yes,No,Casual,Divey,Average,No,No,No,No,No,No,Yes,No,1
angelines-louisiana-kitchen-berkeley,Angeline's Louisiana Kitchen,"['cajun', 'southern', 'seafood']",37.8682228177786,-122.267609462142,CA,"103 Sproul hall Berkeley, CA 94720",786.9035841577438,4.0,2720,False,Yes,No,Yes,Yes,,Dinner,Street,Yes,Yes,Yes,Yes,Casual,Casual,Average,Beer & Wine Only,No,No,No,,Yes,Yes,,2
heavenly-vietnamese-fusion-food-berkeley,Heavenly - Vietnamese Fusion Food,"['vietnamese', 'foodtrucks', 'comfortfood']",37.8695145,-122.2539444,CA,"103 Sproul hall Berkeley, CA 94720",400.60398253692824,4.5,51,False,No,No,Yes,Yes,,Brunch,,Yes,,Yes,Yes,Casual,,,No,No,No,No,,No,No,,1
montagues-gourmet-sandwiches-berkeley-2,Montague's Gourmet Sandwiches,['sandwiches'],37.8668365,-122.2582779,CA,"103 Sproul hall Berkeley, CA 94720",311.2108411627671,4.5,160,False,No,No,Yes,Yes,,Lunch,Street,Yes,,Yes,No,Casual,Casual,Average,No,No,No,Yes,,No,Yes,,1
tivoli-caffe-berkeley,Tivoli Caffe,"['cafes', 'pizza', 'sandwiches']",37.8687827,-122.2578922,CA,"103 Sproul hall Berkeley, CA 94720",111.93749851903846,4.5,111,False,No,Yes,Yes,Yes,,Lunch,Street,Yes,,Yes,Yes,Casual,Casual,Quiet,No,No,Free,No,No,Yes,Yes,,1
pizzahhh-berkeley,Pizzahhh!,['pizza'],37.875148281455,-122.259898781776,CA,"103 Sproul hall Berkeley, CA 94720",636.7488631006057,4.5,100,False,No,No,Yes,Yes,,Lunch,Street,Yes,,Yes,No,Casual,Casual,Average,No,Yes,No,No,,No,No,,1
gypsys-trattoria-italiano-berkeley,Gypsy's Trattoria Italiano,['italian'],37.868045487626006,-122.25808485862001,CA,"103 Sproul hall Berkeley, CA 94720",173.51129691347234,4.0,956,False,No,No,Yes,Yes,,Lunch,Street,Yes,Yes,Yes,Yes,Casual,Casual,Average,No,Yes,No,No,,No,No,,1
toss-noodle-bar-berkeley,Toss Noodle Bar,['asianfusion'],37.8681334,-122.2679719,CA,"103 Sproul hall Berkeley, CA 94720",821.3475892445828,4.0,344,False,No,No,Yes,Yes,,Dinner,Street,Yes,,Yes,Yes,Casual,Casual,Average,Beer & Wine Only,No,No,Yes,,No,No,,1
top-dog-berkeley,Top Dog,['hotdog'],37.867729,-122.257393,CA,"103 Sproul hall Berkeley, CA 94720",214.67729953120914,4.5,1594,False,No,No,Yes,No,,Late Night,Street,Yes,Yes,Yes,Yes,Casual,Casual,Average,No,No,No,Yes,,No,No,,1
eureka-berkeley-3,Eureka!,"['burgers', 'bars', 'newamerican']",37.8702369341339,-122.268460057676,CA,"103 Sproul hall Berkeley, CA 94720",853.7324742259617,4.0,512,False,No,No,Yes,Yes,,Late Night,Street,Yes,,Yes,Yes,Casual,Trendy,Loud,Full Bar,No,No,Yes,,Yes,No,No,2
brazil-fresh-squeeze-cafe-berkeley,Brazil Fresh Squeeze Cafe,"['sandwiches', 'brazilian']",37.872552852207,-122.26674645696,CA,"103 Sproul hall Berkeley, CA 94720",777.1306020930199,4.5,895,False,No,No,Yes,Yes,,Lunch,Street,Yes,Yes,Yes,Yes,Casual,Casual,Average,No,Yes,No,No,Yes,Yes,No,,1
urbann-turbann-berkeley-2,Urbann Turbann,"['indpak', 'hotdogs']",37.8753990679979,-122.260255515575,CA,"103 Sproul hall Berkeley, CA 94720",652.1060970466955,4.0,335,False,No,No,Yes,Yes,,Lunch,Street,Yes,Yes,Yes,No,Casual,Casual,Average,No,No,No,No,,No,No,No,1
pathos-organic-greek-berkeley,Pathos Organic Greek,"['ethnicmarkets', 'greek']",37.8652055,-122.2677797,CA,"103 Sproul hall Berkeley, CA 94720",923.6464880660433,4.5,159,False,Yes,No,Yes,Yes,,Dinner,Street,Yes,Yes,No,Yes,Casual,Classy,Average,Full Bar,No,No,No,,Yes,Yes,,3
pieology-pizzeria-berkeley,Pieology Pizzeria,['pizza'],37.8656583,-122.2585762,CA,"103 Sproul hall Berkeley, CA 94720",428.30051709466375,4.0,235,False,No,No,Yes,Yes,,Lunch,Street,Yes,,Yes,Yes,Casual,Casual,Average,No,No,No,No,,No,No,,1
great-china-berkeley,Great China,['chinese'],37.8676818865786,-122.26615783488,CA,"103 Sproul hall Berkeley, CA 94720",678.8290232449522,4.0,1107,False,Yes,No,Yes,Yes,,Dinner,Street,Yes,Yes,Yes,Yes,Casual,Casual,Loud,Beer & Wine Only,No,No,No,,Yes,Yes,,2
dot-island-grill-berkeley,Dot Island Grill,"['seafood', 'hawaiian']",37.8676966,-122.2599958,CA,"103 Sproul hall Berkeley, CA 94720",227.905616333639,4.0,107,False,No,No,Yes,Yes,,Lunch,Street,Yes,,Yes,Yes,Casual,Casual,Average,No,No,No,No,,Yes,Yes,,1
venus-restaurant-berkeley,Venus Restaurant,"['newamerican', 'breakfast_brunch']",37.867084,-122.267344,CA,"103 Sproul hall Berkeley, CA 94720",798.7194960159098,4.0,983,False,Yes,No,Yes,Yes,,Brunch,Street,Yes,Yes,Yes,No,Casual,Casual,Average,Full Bar,No,No,Yes,,Yes,No,,2
imm-thai-street-food-berkeley,Imm Thai Street Food,['thai'],37.8719275880523,-122.269052362604,CA,"103 Sproul hall Berkeley, CA 94720",941.1593193315937,4.0,151,False,Yes,No,Yes,Yes,,Lunch,Street,Yes,,Yes,Yes,Casual,Hipster,Average,Beer & Wine Only,No,Free,Yes,,Yes,No,,1
joshu-ya-brasserie-berkeley-4,Joshu-Ya Brasserie,"['sushi', 'seafood', 'tapas']",37.8650643,-122.2590903,CA,"103 Sproul hall Berkeley, CA 94720",494.74307389313753,4.0,712,False,Yes,No,Yes,Yes,,Dinner,Street,Yes,Yes,Yes,Yes,Casual,Casual,Average,Beer & Wine Only,Yes,No,No,,Yes,Yes,,2
gregoire-berkeley,Grégoire,"['french', 'breakfast_brunch', 'sandwiches']",37.878695,-122.268545,CA,"103 Sproul hall Berkeley, CA 94720",1333.6959163802824,4.0,1723,False,No,No,Yes,Yes,,Lunch,Street,Yes,Yes,Yes,No,Casual,Casual,Average,No,Yes,No,No,,No,Yes,,2
la-note-restaurant-provençal-berkeley-4,La Note Restaurant Provençal,"['french', 'breakfast_brunch']",37.866186350584,-122.267410978675,CA,"103 Sproul hall Berkeley, CA 94720",837.6609141127162,4.0,2279,False,Yes,No,Yes,Yes,,"Breakfast, Brunch",Street,Yes,Yes,Yes,Yes,Casual,Casual,Average,Beer & Wine Only,Yes,No,No,,Yes,No,,2
suya-african-caribbean-grill-berkeley-2,Suya African Caribbean Grill,"['african', 'caribbean']",37.8703432,-122.2658798,CA,"103 Sproul hall Berkeley, CA 94720",630.2725329727592,4.0,270,False,No,No,Yes,Yes,,Lunch,Street,Yes,Yes,Yes,No,Casual,Casual,Average,Beer & Wine Only,Yes,Free,Yes,,No,Yes,,1
platano-berkeley,Platano,['latin'],37.871643,-122.269615,CA,"103 Sproul hall Berkeley, CA 94720",997.0591610106321,4.0,625,False,Yes,No,Yes,Yes,,"Lunch, Dinner",Street,Yes,Yes,Yes,Yes,Casual,Casual,Average,Beer & Wine Only,No,No,Yes,,Yes,Yes,,2
le-petit-cochon-french-cafe-and-boutique-berkeley,Le Petit Cochon French Cafe and Boutique,"['salad', 'pizza', 'sandwiches']",37.8745322,-122.2684983,CA,"103 Sproul hall Berkeley, CA 94720",1019.90127562862,4.5,80,False,No,No,Yes,Yes,,Lunch,Street,Yes,,Yes,No,Casual,Casual,Average,Beer & Wine Only,Yes,No,No,,No,Yes,,2
rangoon-super-stars-berkeley,Rangoon Super Stars,"['asianfusion', 'burmese', 'chinese']",37.8589516,-122.2596817,CA,"103 Sproul hall Berkeley, CA 94720",1176.1035383085714,4.0,287,False,Yes,No,Yes,Yes,,Dinner,Street,Yes,Yes,Yes,Yes,Casual,Casual,Average,Beer & Wine Only,No,Free,No,,Yes,Yes,,2
momo-masala-berkeley,Momo Masala,"['indpak', 'asianfusion']",37.8751965,-122.2598181,CA,"103 Sproul hall Berkeley, CA 94720",639.2175952695684,4.0,62,False,No,Yes,Yes,Yes,,Lunch,Street,Yes,Yes,Yes,No,Casual,Casual,Quiet,No,Yes,No,No,,Yes,Yes,,1
sliver-pizzeria-berkeley-2,Sliver pizzeria,"['pizza', 'jazzandblues', 'bars']",37.8701706,-122.2668533,CA,"103 Sproul hall Berkeley, CA 94720",716.0293057339106,4.5,627,False,No,No,Yes,Yes,,Lunch,Street,Yes,Yes,Yes,Yes,Casual,Casual,Loud,Full Bar,Yes,Free,Yes,No,No,No,,1
seniores-pizza-berkeley,Seniore's Pizza,['pizza'],37.8681781617401,-122.257975041363,CA,"103 Sproul hall Berkeley, CA 94720",163.69354480093264,3.5,73,False,No,Yes,Yes,Yes,,Late Night,Street,Yes,,Yes,Yes,Casual,Casual,Average,No,No,No,No,,No,,,1
ippuku-berkeley-2,Ippuku,"['japanese', 'bars']",37.870148,-122.267036,CA,"103 Sproul hall Berkeley, CA 94720",733.9857161683186,4.0,804,False,Yes,No,No,Yes,,Dinner,Street,Yes,Yes,No,Yes,Casual,Trendy,Average,Beer & Wine Only,No,No,No,,Yes,No,,3
the-sandwich-spot-berkeley,The Sandwich Spot,"['sandwiches', 'coffee']",37.8708660472988,-122.267791852355,CA,"103 Sproul hall Berkeley, CA 94720",805.5129099072701,4.5,139,False,No,Yes,Yes,Yes,,Lunch,"Garage, Street",Yes,Yes,Yes,Yes,Casual,Casual,Average,No,No,Free,Yes,,No,Yes,,1
jupiter-berkeley,Jupiter,"['pubs', 'pizza', 'breweries']",37.8698387145996,-122.267486572266,CA,"103 Sproul hall Berkeley, CA 94720",765.3052507448558,4.0,2235,False,Yes,No,Yes,Yes,,Dinner,Street,Yes,Yes,No,Yes,Casual,Casual,Loud,Beer & Wine Only,Yes,No,No,,Yes,No,,2
cheese-board-pizza-berkeley,Cheese Board Pizza,['pizza'],37.880019,-122.269444,CA,"103 Sproul hall Berkeley, CA 94720",1497.580976369747,4.5,3666,False,No,No,Yes,Yes,,Lunch,Street,Yes,Yes,Yes,Yes,Casual,Casual,Loud,Beer & Wine Only,Yes,No,No,,No,No,,1
i-b-s-hoagies-berkeley,I.B.'s Hoagies,"['sandwiches', 'burgers']",37.868048,-122.258478,CA,"103 Sproul hall Berkeley, CA 94720",164.3362159477201,4.0,361,False,No,No,Yes,Yes,,Lunch,"Garage, Street, Validated",Yes,Yes,Yes,No,Casual,Casual,Average,No,Yes,No,Yes,,No,No,No,1
the-daily-pint-berkeley,The Daily Pint,['gastropubs'],37.8756988048553,-122.260307818651,CA,"103 Sproul hall Berkeley, CA 94720",702.6745006118541,4.0,39,False,Yes,No,Yes,Yes,No,Dinner,Street,Yes,Yes,No,Yes,Casual,Hipster,Average,Beer & Wine Only,Yes,Free,Yes,,No,,,1
dumpling-express-berkeley,Dumpling Express,"['shanghainese', 'dimsum']",37.867882,-122.256851,CA,"103 Sproul hall Berkeley, CA 94720",247.82060684074904,3.5,126,False,No,No,Yes,Yes,,Brunch,Street,Yes,,Yes,No,Casual,Casual,Average,No,No,No,No,,No,No,,1
julias-at-berkeley-city-club-berkeley,Julia's at Berkeley City Club,['newamerican'],37.86768,-122.262299,CA,"103 Sproul hall Berkeley, CA 94720",413.7422312313425,4.5,19,False,Yes,No,No,Yes,,,,Yes,,No,Yes,Dressy,Romantic,Quiet,Full Bar,No,,No,,Yes,Yes,,3
bongo-burger-berkeley-3,Bongo Burger,"['burgers', 'hotdogs', 'food']",37.865187227726,-122.258257269859,CA,"103 Sproul hall Berkeley, CA 94720",477.2813492485523,4.0,405,False,No,No,Yes,Yes,,Lunch,Street,Yes,Yes,Yes,Yes,Casual,Casual,Average,No,Yes,No,Yes,,No,No,No,1
julies-cafe-berkeley,Julie's Cafe,['cafes'],37.86866,-122.2576065,CA,"103 Sproul hall Berkeley, CA 94720",140.4547735590168,4.0,80,False,No,No,Yes,Yes,,Lunch,"Garage, Street",Yes,Yes,Yes,Yes,Casual,Casual,Average,No,Yes,Free,No,,No,Yes,,1
berkeley-public-berkeley,Berkeley Public,['newamerican'],37.8677410725634,-122.258224412799,CA,"103 Sproul hall Berkeley, CA 94720",202.26607029095322,4.5,7,False,No,No,Yes,Yes,,,,No,,No,Yes,Casual,,,No,No,,Yes,,,,,1
cheese-n-stuff-berkeley,Cheese 'N' Stuff,"['delis', 'sandwiches']",37.8675802752215,-122.259550841607,CA,"103 Sproul hall Berkeley, CA 94720",224.70237215037656,4.0,213,False,No,No,Yes,Yes,,Lunch,"Garage, Street",Yes,Yes,Yes,No,Casual,Casual,Quiet,No,No,No,No,,No,Yes,,1
trattoria-corso-berkeley-2,Trattoria Corso,['italian'],37.8750551,-122.2689036,CA,"103 Sproul hall Berkeley, CA 94720",1081.9086316115734,4.0,457,False,Yes,No,Yes,Yes,,Dinner,Street,Yes,Yes,No,Yes,Casual,Romantic,Average,Full Bar,No,No,No,No,Yes,No,,3
hummingbird-cafe-berkeley,Hummingbird Cafe,"['delis', 'coffee', 'sandwiches']",37.8757980465889,-122.26032525301,CA,"103 Sproul hall Berkeley, CA 94720",714.7041079715299,4.0,155,False,No,No,Yes,Yes,,Lunch,Street,Yes,Yes,Yes,No,Casual,Casual,Average,No,No,No,No,,No,,,1
arriba-perú-berkeley,Arriba Perú,['peruvian'],37.8639107,-122.2589417,CA,"103 Sproul hall Berkeley, CA 94720",622.8603691233002,4.0,126,False,Yes,No,Yes,Yes,,"Lunch, Dinner",Street,Yes,No,Yes,Yes,Casual,Casual,Quiet,No,No,No,Yes,,Yes,Yes,,2
cinnaholic-berkeley,Cinnaholic,"['vegan', 'bakeries']",37.870348,-122.265862,CA,"103 Sproul hall Berkeley, CA 94720",628.8063846528003,4.5,976,False,No,No,Yes,Yes,,Dessert,Street,Yes,Yes,Yes,Yes,Casual,Casual,Average,No,Yes,No,No,,No,Yes,,1
artichoke-basilles-pizza-berkeley,Artichoke Basille's Pizza,['pizza'],37.8679746,-122.2568488,CA,"103 Sproul hall Berkeley, CA 94720",240.223402640282,3.5,218,False,No,No,Yes,Yes,,Lunch,Street,Yes,,Yes,No,Casual,Casual,Average,No,Yes,No,No,,No,No,,1
durant-square-asian-ghetto-berkeley,Durant Square - Asian Ghetto,"['asianfusion', 'korean', 'vietnamese']",37.8682098,-122.2580338,CA,"103 Sproul hall Berkeley, CA 94720",174.97011433145192,3.5,85,False,No,No,Yes,Yes,,Lunch,Street,Yes,Yes,Yes,Yes,Casual,Casual,Loud,No,Yes,No,Yes,,No,No,,1
bears-ramen-house-berkeley,Bears Ramen House,"['korean', 'ramen']",37.8682098,-122.2580338,CA,"103 Sproul hall Berkeley, CA 94720",174.97011433145192,3.5,331,False,No,No,Yes,No,,"Lunch, Dinner",Street,Yes,No,Yes,No,Casual,Casual,Average,No,Yes,No,No,,No,No,,1
bleecker-bistro-berkeley-2,Bleecker Bistro,"['breakfast_brunch', 'sandwiches', 'burgers']",37.8651422,-122.2584516,CA,"103 Sproul hall Berkeley, CA 94720",486.1669101204251,3.5,113,False,Yes,Yes,Yes,Yes,No,Brunch,Street,Yes,Yes,Yes,Yes,Casual,Casual,Average,Beer & Wine Only,No,Free,Yes,No,No,Yes,No,1
belli-osteria-berkeley-4,Belli Osteria,['italian'],37.8716393,-122.2686691,CA,"103 Sproul hall Berkeley, CA 94720",893.8173297065332,4.0,193,False,Yes,No,Yes,Yes,,Dinner,Street,Yes,Yes,No,Yes,Casual,Classy,Average,Beer & Wine Only,No,No,No,,Yes,No,,2
bangkok-noodles-and-thai-bbq-berkeley,Bangkok Noodles & Thai BBQ,['thai'],37.8727432,-122.2686296,CA,"103 Sproul hall Berkeley, CA 94720",936.6251295171727,3.5,305,False,Yes,Yes,Yes,Yes,No,"Dinner, Late Night",Street,Yes,Yes,Yes,Yes,Casual,Casual,Average,Beer & Wine Only,No,No,Yes,No,Yes,Yes,,1
arabica-mediterranean-cuisine-berkeley,Arabica Mediterranean Cuisine,"['mideastern', 'mediterranean']",37.8686657,-122.2670162,CA,"103 Sproul hall Berkeley, CA 94720",729.1550796157749,4.0,98,False,Yes,Yes,Yes,Yes,,Dinner,Street,Yes,Yes,Yes,Yes,Casual,Casual,Average,Beer & Wine Only,No,No,No,,Yes,Yes,,2
gecko-gecko-thai-california-eatery-berkeley,Gecko Gecko Thai California Eatery,['thai'],37.8707695,-122.2703323,CA,"103 Sproul hall Berkeley, CA 94720",1031.1496678616318,4.0,239,False,Yes,No,Yes,Yes,,Lunch,Street,Yes,Yes,Yes,Yes,Casual,Casual,Average,No,No,No,No,,Yes,Yes,,2
the-stuffed-inn-berkeley,The Stuffed Inn,"['sandwiches', 'salad']",37.875686,-122.26004,CA,"103 Sproul hall Berkeley, CA 94720",697.0891100061446,4.0,182,False,No,No,Yes,Yes,,Lunch,Street,Yes,Yes,Yes,Yes,Casual,Casual,Average,No,No,No,No,,No,Yes,,1
east-bay-spice-co-berkeley,East Bay Spice Co,"['indpak', 'cocktailbars']",37.8704248,-122.2659323,CA,"103 Sproul hall Berkeley, CA 94720",636.2230452717713,4.0,162,False,No,No,Yes,Yes,,Late Night,Street,Yes,,No,Yes,Casual,,Average,Full Bar,Yes,Free,No,,Yes,No,,2
mount-everest-restaurant-berkeley-2,Mount Everest Restaurant,"['indpak', 'himalayan', 'ethnicmarkets']",37.863877,-122.258781,CA,"103 Sproul hall Berkeley, CA 94720",626.0052497840722,4.0,350,False,Yes,Yes,Yes,Yes,,"Lunch, Dinner",Street,Yes,Yes,Yes,Yes,Casual,Casual,Average,Beer & Wine Only,Yes,No,No,No,Yes,No,,2
crepes-a-go-go-berkeley-3,Crepes A-Go Go,['creperies'],37.8680496,-122.2593079,CA,"103 Sproul hall Berkeley, CA 94720",179.63620696386124,4.0,228,False,No,No,Yes,Yes,,"Brunch, Dessert","Garage, Street",Yes,Yes,Yes,No,Casual,Casual,Average,No,No,No,No,No,No,No,,1
northside-cafe-berkeley,Northside Cafe,"['breakfast_brunch', 'sandwiches']",37.8751730657207,-122.260311186624,CA,"103 Sproul hall Berkeley, CA 94720",644.270007122453,4.0,192,False,No,No,Yes,Yes,,Lunch,Street,Yes,Yes,Yes,Yes,Casual,Casual,Average,No,Yes,No,No,,No,Yes,,1
sushi-secrets-berkeley-2,Sushi Secrets,"['japanese', 'sushi', 'bubbletea']",37.8708687,-122.2685699,CA,"103 Sproul hall Berkeley, CA 94720",869.0946516450671,4.0,156,False,No,Yes,Yes,Yes,No,Lunch,Street,Yes,Yes,Yes,Yes,Casual,Hipster,Average,No,Yes,Free,Yes,No,No,Yes,,1
kirala-japanese-restaurant-berkeley,Kirala Japanese Restaurant,"['sushi', 'japanese']",37.859286,-122.266717,CA,"103 Sproul hall Berkeley, CA 94720",1333.16256977378,4.0,1237,False,No,No,Yes,Yes,,Dinner,Street,Yes,Yes,Yes,Yes,Casual,Casual,Average,Full Bar,No,No,No,,Yes,No,,2
razans-organic-kitchen-berkeley-2,Razan's Organic Kitchen,"['sandwiches', 'mideastern', 'vegetarian']",37.868731299417,-122.2668837555,CA,"103 Sproul hall Berkeley, CA 94720",716.7123458220225,4.0,237,False,No,No,Yes,Yes,,Lunch,Street,Yes,Yes,Yes,No,Casual,Casual,Average,No,Yes,No,No,,No,No,,2
cal-gyro-mediterranean-berkeley,Cal Gyro Mediterranean,"['mediterranean', 'mideastern', 'greek']",37.8682098,-122.2580338,CA,"103 Sproul hall Berkeley, CA 94720",166.47668316895385,3.5,89,False,No,No,Yes,Yes,,Lunch,Street,Yes,Yes,Yes,Yes,Casual,Casual,Average,No,Yes,No,No,,No,No,,1
phils-sliders-berkeley,Phil's Sliders,['burgers'],37.8714218,-122.2688217,CA,"103 Sproul hall Berkeley, CA 94720",906.9237836880251,4.0,739,False,No,Yes,Yes,Yes,,Lunch,Street,Yes,Yes,Yes,Yes,Casual,Casual,Average,Beer & Wine Only,Yes,No,No,,No,No,No,1
pedros-brazil-cafe-berkeley-2,Pedro's Brazil Cafe,"['brazilian', 'sandwiches']",37.8713989,-122.2713928,CA,"103 Sproul hall Berkeley, CA 94720",1137.0085956265414,4.0,199,False,Yes,No,Yes,Yes,,Lunch,Street,Yes,Yes,Yes,Yes,Casual,Divey,Average,Beer & Wine Only,Yes,Free,No,Yes,Yes,Yes,,2
thai-basil-cuisine-berkeley,Thai Basil Cuisine,['thai'],37.8682098,-122.2580338,CA,"103 Sproul hall Berkeley, CA 94720",163.17932063527041,3.5,690,False,No,No,Yes,No,,"Lunch, Dinner",Street,Yes,Yes,Yes,Yes,Casual,Casual,Loud,No,Yes,No,Yes,,No,No,,1
piq-bakery-berkeley,PIQ Bakery,"['italian', 'bakeries', 'coffee']",37.8712726216567,-122.268183837379,CA,"103 Sproul hall Berkeley, CA 94720",848.6388145604267,4.0,412,False,No,No,Yes,Yes,,Lunch,Street,Yes,Yes,Yes,Yes,Casual,Casual,Average,Beer & Wine Only,Yes,Free,No,,No,Yes,,1
tandoori-nite-berkeley,Tandoori Nite,['indpak'],37.8721905,-122.2669629,CA,"103 Sproul hall Berkeley, CA 94720",777.9469737175601,4.0,51,False,Yes,Yes,Yes,Yes,,Lunch,Street,Yes,,Yes,Yes,Casual,Casual,Average,Beer & Wine Only,No,,Yes,,Yes,Yes,,1
nefeli-caffe-berkeley,Nefeli Caffe,"['coffee', 'greek', 'mediterranean']",37.8755130618811,-122.260274961591,CA,"103 Sproul hall Berkeley, CA 94720",666.1079500269115,4.0,167,False,Yes,Yes,Yes,Yes,,Lunch,Street,Yes,Yes,No,No,Casual,Casual,Average,Beer & Wine Only,Yes,Free,No,No,No,Yes,,1
bacheesos-berkeley-2,Bacheeso's,"['mediterranean', 'buffets']",37.8615685,-122.2592773,CA,"103 Sproul hall Berkeley, CA 94720",890.1524833216936,4.0,146,False,Yes,No,Yes,Yes,,Lunch,Private Lot,Yes,,Yes,Yes,Casual,Casual,Quiet,Beer & Wine Only,Yes,No,No,,Yes,Yes,,2
happy-valley-berkeley,Happy Valley,['chinese'],37.8648767620325,-122.258536219597,CA,"103 Sproul hall Berkeley, CA 94720",508.69763094203944,3.5,134,False,Yes,Yes,Yes,Yes,,"Lunch, Dinner",Street,Yes,,Yes,Yes,Casual,Casual,Average,Beer & Wine Only,No,Free,Yes,,Yes,No,,1
lucky-house-thai-berkeley,Lucky House Thai,['thai'],37.8721965104342,-122.267315089703,CA,"103 Sproul hall Berkeley, CA 94720",809.2468766244117,4.0,343,False,No,No,Yes,Yes,,"Lunch, Dinner",Street,Yes,Yes,Yes,Yes,Casual,Casual,Average,No,No,No,Yes,,Yes,No,,1
athineon-berkeley,Athineon,"['greek', 'mediterranean', 'modern_european']",37.8719597,-122.2720871,CA,"103 Sproul hall Berkeley, CA 94720",1197.6547758103786,4.0,202,False,No,Yes,Yes,Yes,,Lunch,"Garage, Street",Yes,Yes,Yes,Yes,Casual,Casual,Average,Beer & Wine Only,Yes,Free,Yes,,No,Yes,,1
el-burro-picante-berkeley,El Burro Picante,['mexican'],37.8720052,-122.2700242,CA,"103 Sproul hall Berkeley, CA 94720",1025.495503619129,4.0,231,False,No,Yes,Yes,Yes,,Lunch,Street,Yes,Yes,Yes,Yes,Casual,Casual,Average,No,No,Free,Yes,,No,Yes,,1
cafe-blue-door-berkeley,Cafe Blue Door,['cafes'],37.8679699,-122.2648928,CA,"103 Sproul hall Berkeley, CA 94720",563.2940197654508,3.5,60,False,No,No,Yes,Yes,,Brunch,Street,Yes,Yes,Yes,Yes,Casual,Hipster,Average,Beer & Wine Only,Yes,Free,Yes,No,No,Yes,,1
musashi-berkeley,Musashi,"['japanese', 'sushi']",37.864021807909,-122.266664654016,CA,"103 Sproul hall Berkeley, CA 94720",913.7818038418008,4.0,199,False,No,No,Yes,Yes,,Dinner,Street,Yes,Yes,Yes,No,Casual,Casual,Average,Beer & Wine Only,No,No,No,,Yes,Yes,,2
chez-panisse-berkeley,Chez Panisse,"['newamerican', 'french']",37.879664,-122.26894,CA,"103 Sproul hall Berkeley, CA 94720",1439.1517130020588,4.0,1438,False,Yes,No,No,Yes,,Dinner,Street,Yes,Yes,No,Yes,Dressy,Intimate,Average,Full Bar,No,No,No,,Yes,No,,4
thai-noodle-berkeley,Thai Noodle,['thai'],37.873188,-122.26886,CA,"103 Sproul hall Berkeley, CA 94720",942.0524485928962,3.5,507,False,No,No,Yes,Yes,,Late Night,Street,Yes,Yes,Yes,Yes,Casual,Casual,Average,No,No,No,No,,Yes,No,,1
house-of-curries-berkeley-2,House of Curries,"['indpak', 'pakistani', 'halal']",37.867668,-122.257866,CA,"103 Sproul hall Berkeley, CA 94720",203.51810383496786,3.5,416,False,No,No,Yes,Yes,,"Lunch, Dinner",Street,Yes,No,Yes,Yes,Casual,Casual,Average,No,Yes,No,No,,No,No,,1
summer-kitchen-and-bake-shop-berkeley,Summer Kitchen & Bake Shop,"['bakeries', 'newamerican', 'pizza']",37.8574461,-122.2532025,CA,"103 Sproul hall Berkeley, CA 94720",1427.6160876654162,4.0,307,False,No,No,Yes,Yes,No,Lunch,Street,Yes,Yes,Yes,No,Casual,Casual,Average,Beer & Wine Only,No,No,No,,No,Yes,,2
babette-berkeley,Babette,"['coffee', 'cafes']",37.8712859004736,-122.259871289134,CA,"103 Sproul hall Berkeley, CA 94720",276.67452334938855,4.0,112,False,No,No,Yes,Yes,,Brunch,Street,Yes,,No,Yes,Casual,Hipster,Average,Beer & Wine Only,Yes,Free,No,,No,No,,2
mission-heirloom-cafe-berkeley-2,Mission Heirloom Cafe,"['cafes', 'salad']",37.8803977966309,-122.269920349121,CA,"103 Sproul hall Berkeley, CA 94720",1557.2410509349438,4.0,75,False,No,No,Yes,Yes,,Brunch,Street,Yes,Yes,Yes,Yes,Casual,Casual,Average,No,Yes,No,No,No,Yes,Yes,,2
tias-berkeley,Tia's,"['cafes', 'breakfast_brunch']",37.8687290847301,-122.266450077295,CA,"103 Sproul hall Berkeley, CA 94720",693.6236650204869,4.0,18,False,No,No,Yes,Yes,,,Street,Yes,,Yes,Yes,Casual,,Quiet,No,Yes,Free,No,,No,Yes,,1
revival-bar-and-kitchen-berkeley,Revival Bar & Kitchen,"['newamerican', 'bars']",37.8711053137895,-122.26835819823,CA,"103 Sproul hall Berkeley, CA 94720",859.4974964379065,3.5,426,False,Yes,No,No,Yes,,Dinner,Street,Yes,Yes,No,Yes,Casual,Trendy,Average,Full Bar,No,No,No,,Yes,No,,3
taste-of-the-himalayas-berkeley,Taste of the Himalayas,"['indpak', 'himalayan', 'seafood']",37.876479,-122.269145,CA,"103 Sproul hall Berkeley, CA 94720",1195.4302686631288,4.0,619,False,Yes,Yes,Yes,Yes,,Dinner,Street,Yes,Yes,Yes,Yes,Casual,Casual,Average,Beer & Wine Only,No,Free,No,,Yes,No,,2
beta-lounge-berkeley,Beta Lounge,"['lounges', 'tapasmallplates']",37.8670082,-122.2661819,CA,"103 Sproul hall Berkeley, CA 94720",742.4727149773901,4.0,282,False,Yes,No,Yes,Yes,,Late Night,Street,Yes,Yes,No,Yes,Casual,Casual,Average,Full Bar,No,No,Yes,No,Yes,No,,2
oriental-restaurant-berkeley,Oriental Restaurant,"['vietnamese', 'chinese']",37.8751181066036,-122.268845289946,CA,"103 Sproul hall Berkeley, CA 94720",1081.011667397175,4.0,245,False,No,No,Yes,No,,Lunch,Street,Yes,Yes,Yes,Yes,Casual,Casual,Average,No,No,No,No,,Yes,No,,1
fresco-mexican-grill-berkeley-2,Fresco Mexican Grill,['mexican'],37.8698502480984,-122.267789840698,CA,"103 Sproul hall Berkeley, CA 94720",779.825741574599,4.0,73,False,No,No,Yes,Yes,,Lunch,Street,Yes,,Yes,No,Casual,Casual,Average,No,No,No,No,,No,Yes,,1
comal-berkeley,Comal,['mexican'],37.8715515,-122.2687378,CA,"103 Sproul hall Berkeley, CA 94720",884.4359958950481,3.5,631,False,Yes,No,Yes,Yes,,Dinner,"Garage, Street",Yes,Yes,No,Yes,Casual,Trendy,Loud,Full Bar,Yes,No,No,No,Yes,No,,2
smart-alecs-intelligent-food-berkeley,Smart Alec's Intelligent Food,"['burgers', 'sandwiches']",37.8676186,-122.2586594,CA,"103 Sproul hall Berkeley, CA 94720",201.11532357045886,3.5,700,False,No,No,Yes,Yes,,Lunch,Street,Yes,Yes,Yes,Yes,Casual,Casual,Average,No,No,Free,Yes,,No,No,No,1
la-burrita-berkeley,La Burrita,"['mexican', 'salad', 'vegetarian']",37.8677292,-122.2573929,CA,"103 Sproul hall Berkeley, CA 94720",199.34668328159182,3.5,470,False,No,No,Yes,Yes,,"Lunch, Dinner, Late Night",Street,Yes,Yes,Yes,No,Casual,Casual,Average,No,Yes,No,No,,No,No,,1
townie-berkeley,Townie,['cafes'],37.871547,-122.275497,CA,"103 Sproul hall Berkeley, CA 94720",1484.9704979975086,3.5,100,False,Yes,No,Yes,Yes,,"Brunch, Dinner, Late Night","Street, Private Lot",Yes,Yes,No,Yes,Casual,Hipster,Average,Full Bar,No,Free,Yes,No,Yes,Yes,,2
elmwood-cafe-berkeley,Elmwood Cafe,"['coffee', 'cafes']",37.8583602140686,-122.253363148486,CA,"103 Sproul hall Berkeley, CA 94720",1327.4715290465626,4.0,421,False,No,No,Yes,Yes,,Brunch,Street,Yes,Yes,Yes,No,Casual,Casual,Average,Beer & Wine Only,Yes,No,No,,No,No,,2
dojo-dog-berkeley,Dojo Dog,"['asianfusion', 'hotdog', 'foodtrucks']",37.8693008,-122.2546387,CA,"103 Sproul hall Berkeley, CA 94720",367.18977739014804,4.0,102,False,No,No,Yes,Yes,,Lunch,Street,Yes,Yes,Yes,Yes,Casual,Casual,Average,No,Yes,No,No,Yes,No,No,,1
perdition-smokehouse-berkeley,Perdition Smokehouse,"['bbq', 'bars']",37.871935289155,-122.269408889115,CA,"103 Sproul hall Berkeley, CA 94720",971.4257782534362,3.5,191,False,No,No,Yes,Yes,,Dinner,Street,Yes,,Yes,Yes,Casual,Casual,Average,Beer & Wine Only,Yes,No,No,No,Yes,No,,2
kaze-ramen-berkeley-3,Kaze Ramen,"['ramen', 'tapasmallplates']",37.8728107362986,-122.26850733161,CA,"103 Sproul hall Berkeley, CA 94720",939.3649576294082,3.5,134,False,No,No,Yes,Yes,,Lunch,Street,Yes,,Yes,Yes,Casual,Casual,Average,Beer & Wine Only,No,No,No,,Yes,No,,2
makris-cafe-berkeley,Makris Cafe,['diners'],37.8722709417343,-122.268160656095,CA,"103 Sproul hall Berkeley, CA 94720",873.7035178295556,4.0,72,False,No,No,Yes,Yes,,Breakfast,Street,Yes,Yes,Yes,Yes,Casual,Casual,Quiet,No,No,No,No,,Yes,No,,1
chengdu-style-restaurant-berkeley,Chengdu Style Restaurant,"['szechuan', 'asianfusion']",37.868766,-122.256561,CA,"103 Sproul hall Berkeley, CA 94720",211.5721597677895,3.5,75,False,Yes,Yes,Yes,Yes,,Lunch,Street,Yes,Yes,Yes,Yes,Casual,Casual,Average,Beer & Wine Only,Yes,Free,Yes,,Yes,Yes,,2
peoples-cafe-berkeley,People's Cafe,"['coffee', 'cafes']",37.871983,-122.267494,CA,"103 Sproul hall Berkeley, CA 94720",812.8689039277192,3.5,349,False,No,No,Yes,Yes,,"Breakfast, Late Night",Street,Yes,Yes,No,Yes,Casual,Casual,Average,No,Yes,Free,No,,No,No,,1
source-mini-berkeley,Source Mini,['vegan'],37.879812,-122.268895,CA,"103 Sproul hall Berkeley, CA 94720",1449.6793889166102,4.0,150,False,No,No,Yes,Yes,,Lunch,Street,Yes,Yes,Yes,No,Casual,Casual,Average,No,Yes,No,No,,No,Yes,,2
bongo-burger-berkeley-2,Bongo Burger,"['burgers', 'hotdogs']",37.8755798,-122.2599792,CA,"103 Sproul hall Berkeley, CA 94720",689.1817145361439,3.5,163,False,No,No,Yes,Yes,,Lunch,Street,Yes,Yes,Yes,Yes,Casual,Casual,Average,No,No,No,No,,No,No,No,1
muraccis-berkeley-berkeley,Muracci's Berkeley,['japanese'],37.8663788,-122.2589035,CA,"103 Sproul hall Berkeley, CA 94720",349.04180776702407,3.5,71,False,Yes,No,Yes,Yes,No,Lunch,"Garage, Street",Yes,Yes,Yes,Yes,Casual,Casual,Average,Beer & Wine Only,No,No,No,No,Yes,Yes,,2
cancun-taqueria-berkeley,Cancun Taqueria,['mexican'],37.869339,-122.266777,CA,"103 Sproul hall Berkeley, CA 94720",705.5144913646627,3.5,676,False,No,No,Yes,Yes,,Lunch,Street,Yes,Yes,Yes,Yes,Casual,Casual,Average,Beer & Wine Only,No,No,No,,No,Yes,,2
saturn-cafe-berkeley,Saturn Cafe,"['vegetarian', 'vegan', 'breakfast_brunch']",37.8697611565096,-122.266035809096,CA,"103 Sproul hall Berkeley, CA 94720",637.6971405997249,3.5,765,False,Yes,No,Yes,Yes,,Lunch,Street,Yes,Yes,Yes,Yes,Casual,Casual,Average,Beer & Wine Only,No,No,No,,Yes,No,,2
finfine-ethiopian-restaurant-berkeley,Finfine Ethiopian Restaurant,"['ethiopian', 'gluten_free']",37.8639107,-122.2589417,CA,"103 Sproul hall Berkeley, CA 94720",627.084753004848,4.0,211,False,Yes,No,Yes,Yes,,Dinner,Street,No,Yes,Yes,Yes,Casual,Casual,Quiet,Beer & Wine Only,No,No,No,,Yes,Yes,,2
the-sunny-side-café-berkeley-2,The Sunny Side Café,['breakfast_brunch'],37.8702431,-122.2660675,CA,"103 Sproul hall Berkeley, CA 94720",626.9941468344717,3.5,286,False,No,No,Yes,Yes,,Brunch,Street,Yes,Yes,Yes,No,Casual,Casual,Average,Beer & Wine Only,Yes,No,No,,Yes,No,,2
thai-noodle-ii-berkeley-2,Thai Noodle II,['thai'],37.866386,-122.258896,CA,"103 Sproul hall Berkeley, CA 94720",343.5925033579222,3.5,136,False,No,No,Yes,Yes,,Lunch,Street,Yes,,Yes,Yes,Casual,Casual,Loud,No,No,No,No,,Yes,No,,1
cafe-tibet-berkeley,Cafe Tibet,"['himalayan', 'vegetarian', 'gluten_free']",37.8718384355307,-122.270154878497,CA,"103 Sproul hall Berkeley, CA 94720",1032.7741834963483,4.0,223,False,No,No,Yes,Yes,,Dinner,Street,Yes,Yes,Yes,Yes,Casual,Casual,Quiet,Beer & Wine Only,No,No,No,,Yes,No,,2
panchos-berkeley,Pancho's,['mexican'],37.8682098,-122.2580338,CA,"103 Sproul hall Berkeley, CA 94720",174.97011433145192,2.5,120,False,No,No,Yes,Yes,,Late Night,Street,Yes,Yes,Yes,Yes,Casual,Casual,Average,No,Yes,No,Yes,,No,No,,1
kamado-sushi-berkeley,Kamado Sushi,"['japanese', 'sushi']",37.8818319209494,-122.269697226584,CA,"103 Sproul hall Berkeley, CA 94720",1672.3473636383414,4.0,59,False,Yes,No,Yes,Yes,,Dinner,Street,Yes,,Yes,Yes,Casual,Casual,Average,Beer & Wine Only,No,No,No,,Yes,No,,2
wood-tavern-oakland,Wood Tavern,['newamerican'],37.850677245435,-122.252613605212,CA,"103 Sproul hall Berkeley, CA 94720",2162.5604892649476,4.5,1350,False,Yes,No,No,Yes,,Dinner,Street,Yes,Yes,No,No,Casual,Trendy,Average,Full Bar,No,No,Yes,,Yes,No,,3
tai-san-restaurant-berkeley,Tai San Restaurant,['chinese'],37.8590508,-122.2589035,CA,"103 Sproul hall Berkeley, CA 94720",1161.325674691353,4.0,126,False,Yes,Yes,Yes,Yes,,"Lunch, Dinner",Street,Yes,Yes,Yes,Yes,Casual,Casual,Quiet,Beer & Wine Only,No,Free,No,No,Yes,Yes,,1
bistro-liaison-berkeley,Bistro Liaison,"['french', 'breakfast_brunch']",37.874294,-122.26835,CA,"103 Sproul hall Berkeley, CA 94720",994.6146024813601,3.5,350,False,Yes,No,Yes,Yes,,Dinner,Street,Yes,Yes,No,Yes,Casual,Romantic,Average,Full Bar,Yes,No,No,,Yes,Yes,,2
caffe-mediterraneum-berkeley,Caffe Mediterraneum,"['coffee', 'mediterranean']",37.865601,-122.258286,CA,"103 Sproul hall Berkeley, CA 94720",436.3723404167931,3.5,200,False,No,No,Yes,Yes,,"Breakfast, Brunch",Street,Yes,Yes,Yes,Yes,Casual,Hipster,Average,Beer & Wine Only,Yes,Free,No,,No,No,,1
wiki-wiki-hawaiian-berkeley,Wiki Wiki Hawaiian,"['hawaiian', 'hotdogs', 'bbq']",37.8653823584318,-122.26729363203,CA,"103 Sproul hall Berkeley, CA 94720",887.8940433372412,3.5,153,False,No,No,Yes,Yes,,Lunch,Street,Yes,Yes,Yes,Yes,Casual,Casual,Average,No,Yes,No,No,,No,Yes,No,1
cha-ya-berkeley,Cha-Ya,"['japanese', 'vegetarian', 'sushi']",37.87714,-122.269102,CA,"103 Sproul hall Berkeley, CA 94720",1241.5952397261615,4.0,525,False,No,No,Yes,No,,"Lunch, Dinner",Street,Yes,Yes,Yes,No,Casual,Casual,Quiet,Beer & Wine Only,No,No,No,,Yes,No,,2
the-melt-berkeley-berkeley-2,The Melt Berkeley,"['tradamerican', 'sandwiches']",37.8667569905519,-122.258858084679,CA,"103 Sproul hall Berkeley, CA 94720",298.43156879506205,3.0,199,False,No,No,Yes,Yes,,Lunch,Street,Yes,Yes,Yes,Yes,Casual,Casual,Average,No,No,Free,No,,No,No,,1
gordo-taqueria-berkeley-2,Gordo Taqueria,['mexican'],37.866761767336,-122.25898236097,CA,"103 Sproul hall Berkeley, CA 94720",305.75987620873707,3.5,196,False,No,No,Yes,Yes,,Lunch,Street,Yes,Yes,Yes,Yes,Casual,Casual,Average,No,No,No,No,,No,Yes,,1
troy-greek-cuisine-berkeley,Troy Greek Cuisine,['greek'],37.8564894944429,-122.252945825458,CA,"103 Sproul hall Berkeley, CA 94720",1537.620799605021,4.0,272,False,Yes,No,Yes,Yes,,"Lunch, Dinner",Street,Yes,,Yes,Yes,Casual,Casual,Average,Beer & Wine Only,No,No,No,,Yes,No,,2
top-dog-berkeley-3,Top Dog,"['hotdogs', 'hotdog']",37.8705271,-122.2663488,CA,"103 Sproul hall Berkeley, CA 94720",674.1548764143192,4.0,271,False,No,No,Yes,Yes,,Lunch,Street,Yes,Yes,Yes,Yes,Casual,Casual,Average,No,Yes,No,Yes,,No,Yes,No,1
republic-of-v-berkeley,Republic of V,"['vegan', 'grocery']",37.8706683218479,-122.279153689742,CA,"103 Sproul hall Berkeley, CA 94720",1800.9850808629594,5.0,81,False,No,No,No,Yes,,Dessert,Street,Yes,,Yes,Yes,Casual,Casual,Quiet,No,No,No,No,,No,No,,2
crunch-korean-american-fusion-foods-berkeley,CRUNCH Korean -American Fusion Foods,['korean'],37.8704497218132,-122.266613021493,CA,"103 Sproul hall Berkeley, CA 94720",698.3621978426321,3.0,190,False,No,No,Yes,Yes,,Lunch,Street,Yes,Yes,Yes,Yes,Casual,Casual,Average,Beer & Wine Only,Yes,No,Yes,No,No,No,,1
san-francisco-soup-company-berkeley-2,San Francisco Soup Company,"['sandwiches', 'soup']",37.8685493,-122.2587891,CA,"103 Sproul hall Berkeley, CA 94720",94.34091368534793,3.5,169,False,No,Yes,Yes,Yes,,Lunch,Street,No,Yes,Yes,No,Casual,Casual,Loud,No,No,No,No,,No,Yes,,1
sliderbar-berkeley,Sliderbar,['newamerican'],37.870125,-122.267197,CA,"103 Sproul hall Berkeley, CA 94720",744.0468335173941,3.5,102,False,No,Yes,Yes,Yes,,"Brunch, Dinner",Street,Yes,Yes,No,Yes,Casual,Hipster,Average,Beer & Wine Only,Yes,Free,Yes,,Yes,Yes,,2
free-speech-movement-cafe-berkeley,Free Speech Movement Cafe,"['coffee', 'sandwiches']",37.8724079738015,-122.260690033436,CA,"103 Sproul hall Berkeley, CA 94720",363.6381748139557,3.5,192,False,No,No,Yes,Yes,,Lunch,Street,Yes,Yes,No,Yes,Casual,Casual,Loud,No,Yes,Free,No,,No,No,,1
sol-y-luna-taqueria-berkeley,Sol y Luna Taqueria,['mexican'],37.873299,-122.268814,CA,"103 Sproul hall Berkeley, CA 94720",976.460361896047,3.5,120,False,No,No,Yes,Yes,,Lunch,Street,Yes,Yes,Yes,Yes,Casual,Casual,Average,No,Yes,Free,Yes,,No,Yes,,1
seasons-of-japan-berkeley,Seasons of Japan,['japanese'],37.8706461097353,-122.268250845373,CA,"103 Sproul hall Berkeley, CA 94720",841.0922553043858,3.0,70,False,No,No,Yes,Yes,,Lunch,Street,Yes,,Yes,Yes,Casual,Casual,Average,No,Yes,Free,Yes,,No,Yes,,1
lo-cocos-berkeley,Lo Coco's,"['italian', 'pizza']",37.8817291,-122.2697906,CA,"103 Sproul hall Berkeley, CA 94720",1672.523391588627,4.0,257,False,No,No,Yes,Yes,,Dinner,Street,Yes,Yes,Yes,Yes,Casual,Romantic,Average,Beer & Wine Only,No,No,No,,Yes,Yes,,2
tuk-tuk-thai-cafe-berkeley,Tuk Tuk Thai Cafe,['thai'],37.8643456846476,-122.267642989755,CA,"103 Sproul hall Berkeley, CA 94720",945.7114262228729,3.0,612,False,Yes,Yes,Yes,Yes,,"Dinner, Late Night",Street,Yes,Yes,Yes,Yes,Casual,Casual,Average,Beer & Wine Only,No,No,Yes,No,Yes,No,,2
cafe-durant-berkeley,Cafe Durant,['mexican'],37.8681298970289,-122.258307339617,CA,"103 Sproul hall Berkeley, CA 94720",158.58315851095665,3.5,305,False,No,No,Yes,Yes,,Breakfast,Street,Yes,No,Yes,Yes,Casual,Casual,Average,Beer & Wine Only,Yes,Free,Yes,,No,No,,1
udupi-palace-berkeley,Udupi Palace,"['indpak', 'vegetarian']",37.871737,-122.272793,CA,"103 Sproul hall Berkeley, CA 94720",1254.934370347423,4.0,481,False,No,No,Yes,Yes,,Dinner,Street,Yes,Yes,Yes,Yes,Casual,Casual,Average,Beer & Wine Only,No,No,No,,Yes,No,,1
blondies-pizza-berkeley,Blondie's Pizza,['pizza'],37.8680390864611,-122.259122952819,CA,"103 Sproul hall Berkeley, CA 94720",172.5227266158746,3.0,471,False,No,No,Yes,Yes,,Lunch,Street,No,Yes,Yes,Yes,Casual,Casual,Average,No,No,No,No,,No,No,,1
chaat-cafe-berkeley,Chaat Cafe,['indpak'],37.871501147747,-122.272787466645,CA,"103 Sproul hall Berkeley, CA 94720",1257.2659777730757,3.5,262,False,No,No,Yes,Yes,,Lunch,Street,Yes,Yes,Yes,Yes,Casual,Casual,Average,Beer & Wine Only,No,No,No,,No,Yes,,1
henrys-berkeley,Henry's,"['bars', 'newamerican', 'tradamerican']",37.868039892258395,-122.25661844015099,CA,"103 Sproul hall Berkeley, CA 94720",250.08775981312547,3.5,257,False,Yes,No,Yes,Yes,,"Lunch, Dinner",Street,Yes,Yes,No,Yes,Casual,Casual,Average,Full Bar,No,No,Yes,,Yes,No,,2
c-u-sushi-berkeley,C U Sushi,"['japanese', 'sushi']",37.8704604506493,-122.266537249088,CA,"103 Sproul hall Berkeley, CA 94720",682.829343595269,3.5,478,False,No,No,Yes,Yes,,Lunch,Street,Yes,Yes,Yes,Yes,Casual,Casual,Average,Beer & Wine Only,Yes,No,No,,Yes,No,,2
pho-k-and-k-berkeley,Pho K & K,['vietnamese'],37.8642974048853,-122.258487269282,CA,"103 Sproul hall Berkeley, CA 94720",549.6721171911573,3.5,207,False,No,No,Yes,Yes,,Lunch,Street,Yes,Yes,Yes,Yes,Casual,Casual,Average,Beer & Wine Only,No,No,No,,Yes,No,,1
cafe-milano-berkeley,Cafe Milano,"['coffee', 'cafes']",37.8685112,-122.2584915,CA,"103 Sproul hall Berkeley, CA 94720",113.48217879314679,3.5,342,False,No,No,Yes,Yes,,Lunch,Street,Yes,Yes,No,Yes,Casual,Casual,Average,No,No,Free,No,,No,No,,1
karma-kitchen-berkeley,Karma Kitchen,['indpak'],37.876354,-122.269264,CA,"103 Sproul hall Berkeley, CA 94720",1194.1521038871176,4.0,49,False,No,No,No,Yes,,"Brunch, Lunch",Street,,Yes,Yes,Yes,Casual,,Average,No,No,No,No,,Yes,No,,1
the-station-berkeley,The Station,['burgers'],37.8588226,-122.2449543,CA,"103 Sproul hall Berkeley, CA 94720",1698.2472816880627,4.0,55,False,No,No,Yes,Yes,No,"Breakfast, Brunch",Private Lot,Yes,Yes,Yes,Yes,Casual,Casual,Average,No,Yes,Free,No,,No,No,No,1
la-vals-pizza-berkeley,La Val's Pizza,['pizza'],37.8754997,-122.2605209,CA,"103 Sproul hall Berkeley, CA 94720",684.3036898170172,3.5,303,False,No,Yes,Yes,Yes,,Lunch,Street,Yes,Yes,Yes,Yes,Casual,Casual,Average,Beer & Wine Only,Yes,No,Yes,,No,No,,1
sandwich-zone-berkeley,Sandwich Zone,['sandwiches'],37.8709150850773,-122.267677858472,CA,"103 Sproul hall Berkeley, CA 94720",801.0175271857943,4.0,122,False,No,No,Yes,Yes,,Lunch,Street,Yes,Yes,Yes,No,Casual,Casual,Average,No,No,No,Yes,,No,Yes,,1
triple-rock-brewery-and-ale-house-berkeley,Triple Rock Brewery & Ale House,"['pubs', 'breweries', 'burgers']",37.873405,-122.268829,CA,"103 Sproul hall Berkeley, CA 94720",975.9430820332776,3.5,737,False,No,No,Yes,Yes,,"Dinner, Late Night",Street,Yes,Yes,No,Yes,Casual,Casual,Loud,Beer & Wine Only,Yes,No,Yes,,Yes,No,No,2
bobby-gs-pizzeria-berkeley,Bobby G's Pizzeria,"['pizza', 'jazzandblues', 'sportsbars']",37.8719805926085,-122.26903706789,CA,"103 Sproul hall Berkeley, CA 94720",942.7969241355225,4.0,447,False,Yes,No,Yes,Yes,,"Lunch, Dinner","Garage, Street",Yes,Yes,Yes,Yes,Casual,Casual,Average,Beer & Wine Only,Yes,Free,Yes,,No,No,,2
simply-greek-berkeley,Simply Greek,['greek'],37.8557816,-122.2662277,CA,"103 Sproul hall Berkeley, CA 94720",1665.3835741198247,4.0,80,False,No,No,Yes,Yes,,Lunch,Street,Yes,,Yes,Yes,Casual,Casual,Quiet,Beer & Wine Only,No,No,No,,No,Yes,,1
tsunami-dogs-berkeley,Tsunami Dogs,"['hotdog', 'foodstands', 'ethnicmarkets']",37.8705680650679,-122.270592304115,CA,"103 Sproul hall Berkeley, CA 94720",1043.7181594436554,4.5,17,False,No,No,Yes,Yes,,Lunch,"Street, Private Lot",Yes,Yes,Yes,Yes,Casual,Divey,Average,No,No,No,No,Yes,No,Yes,,1
chez-panisse-cafe-berkeley,Chez Panisse Cafe,"['newamerican', 'french']",37.879589,-122.268867,CA,"103 Sproul hall Berkeley, CA 94720",1432.750144987153,4.0,737,False,Yes,No,No,Yes,,Dinner,Street,No,No,No,Yes,Casual,Classy,Average,Beer & Wine Only,No,No,No,,Yes,No,,3
le-bateau-ivre-berkeley,Le Bateau Ivre,"['french', 'coffee', 'breakfast_brunch']",37.8625603,-122.2584991,CA,"103 Sproul hall Berkeley, CA 94720",779.0358183828237,3.5,335,False,Yes,No,Yes,Yes,,Brunch,Street,Yes,Yes,No,Yes,Casual,Intimate,Quiet,Full Bar,Yes,Free,No,,Yes,Yes,,2
nanayiro-berkeley,Nanayiro,"['sushi', 'japanese']",37.8660583,-122.2671127,CA,"103 Sproul hall Berkeley, CA 94720",827.6956819320842,3.5,267,False,Yes,No,Yes,Yes,,Dinner,Street,Yes,Yes,Yes,Yes,Casual,Casual,Average,Beer & Wine Only,No,No,No,,Yes,No,,2
jayakarta-restaurant-berkeley,Jayakarta Restaurant,"['indonesian', 'singaporean']",37.8718484938145,-122.270075753331,CA,"103 Sproul hall Berkeley, CA 94720",1019.9536429163463,4.0,558,False,Yes,No,Yes,Yes,,"Lunch, Dinner",Street,Yes,Yes,Yes,Yes,Casual,Casual,Average,Beer & Wine Only,No,No,No,,Yes,Yes,,2
free-house-berkeley-2,Free House,"['pubs', 'tradamerican']",37.86923,-122.254275,CA,"103 Sproul hall Berkeley, CA 94720",396.47255348280925,3.0,142,False,No,No,Yes,Yes,,Dinner,Street,Yes,Yes,No,Yes,Casual,Casual,Average,Full Bar,Yes,Free,Yes,,Yes,No,,2
the-local-butcher-shop-berkeley,The Local Butcher Shop,"['butcher', 'sandwiches']",37.87822391693,-122.2696352005,CA,"103 Sproul hall Berkeley, CA 94720",1359.2940371566522,4.0,127,False,No,No,Yes,Yes,,Lunch,Street,Yes,,No,No,Casual,Hipster,Average,No,No,No,No,,No,No,,2
banana-sams-cafe-berkeley,Banana Sam's Cafe,"['cafes', 'sandwiches']",37.8754616,-122.2604065,CA,"103 Sproul hall Berkeley, CA 94720",684.1830856285297,4.0,28,False,No,No,Yes,Yes,,Lunch,Street,Yes,,Yes,No,Casual,Casual,Average,No,Yes,No,No,,No,,,1
zatar-berkeley-3,Zatar,"['greek', 'mediterranean', 'moroccan']",37.8725615,-122.268276,CA,"103 Sproul hall Berkeley, CA 94720",900.2330080919177,3.5,127,False,Yes,Yes,Yes,Yes,,Dinner,Street,Yes,Yes,No,No,Casual,Intimate,Average,Beer & Wine Only,No,,No,No,Yes,Yes,,3
emilias-pizzeria-berkeley,Emilia's Pizzeria,['pizza'],37.8555183,-122.2662811,CA,"103 Sproul hall Berkeley, CA 94720",1691.5705113019796,4.5,312,False,Yes,No,Yes,No,,Dinner,Street,Yes,Yes,Yes,No,Casual,Casual,Quiet,No,No,No,No,,No,No,,2
giovanni-berkeley-3,Giovanni,"['italian', 'pizza']",37.865288,-122.26799,CA,"103 Sproul hall Berkeley, CA 94720",927.6566882781902,3.5,255,False,Yes,Yes,Yes,Yes,,Dinner,Street,Yes,Yes,Yes,Yes,Casual,Romantic,Average,Full Bar,No,Free,Yes,,Yes,Yes,,2
au-coquelet-cafe-restaurant-berkeley,Au Coquelet Cafe Restaurant,"['coffee', 'breakfast_brunch']",37.871616,-122.270493,CA,"103 Sproul hall Berkeley, CA 94720",1063.753426391203,3.5,503,False,No,No,Yes,Yes,,Late Night,Street,Yes,Yes,Yes,Yes,Casual,Casual,Average,Beer & Wine Only,No,Free,Yes,,Yes,No,,1
t-toust-berkeley,T-Toust,['korean'],37.867989,-122.259842,CA,"103 Sproul hall Berkeley, CA 94720",202.27832023418043,3.5,161,False,No,No,Yes,Yes,,Lunch,Street,Yes,Yes,Yes,Yes,Casual,Casual,Average,No,No,No,No,,No,Yes,,1
sams-market-berkeley,Sam's Market,"['grocery', 'sandwiches', 'beer_and_wine']",37.868271,-122.259354,CA,"103 Sproul hall Berkeley, CA 94720",146.3139092820548,3.5,117,False,No,No,Yes,Yes,,Lunch,Street,Yes,Yes,Yes,No,Casual,,Loud,No,No,No,No,,No,,,1
oasis-grill-berkeley,Oasis Grill,"['mideastern', 'greek', 'mediterranean']",37.8703370690346,-122.267539054155,CA,"103 Sproul hall Berkeley, CA 94720",798.9006403865516,3.5,140,False,No,No,Yes,Yes,,Lunch,Street,Yes,Yes,Yes,Yes,Casual,Casual,Average,No,Yes,No,No,,No,Yes,,1
crepevine-berkeley,Crepevine,"['creperies', 'newamerican', 'breakfast_brunch']",37.8782181375896,-122.269277513503,CA,"103 Sproul hall Berkeley, CA 94720",1337.0053650396474,3.5,499,False,No,No,Yes,Yes,,Lunch,Street,Yes,Yes,Yes,Yes,Casual,Casual,Average,Beer & Wine Only,Yes,No,No,,Yes,No,,2
five-berkeley,FIVE,"['newamerican', 'bars', 'breakfast_brunch']",37.8693124651909,-122.26823978126,CA,"103 Sproul hall Berkeley, CA 94720",850.9596991967547,3.5,603,False,Yes,No,Yes,Yes,,Dinner,"Garage, Street",Yes,Yes,No,Yes,Casual,Classy,Average,Full Bar,No,Free,No,,Yes,No,,3
sweetheart-cafe-berkeley,Sweetheart Cafe,"['coffee', 'burgers']",37.8680534,-122.2581711,CA,"103 Sproul hall Berkeley, CA 94720",172.46188410771384,3.5,458,False,No,No,Yes,No,,Dessert,Street,Yes,Yes,Yes,No,Casual,Casual,Average,No,No,No,No,,No,No,No,1
herbivore-berkeley,Herbivore,"['vegetarian', 'vegan']",37.864685,-122.266846,CA,"103 Sproul hall Berkeley, CA 94720",908.0131712630146,3.5,729,False,No,No,Yes,Yes,,Lunch,Street,Yes,Yes,Yes,Yes,Casual,Casual,Average,Full Bar,Yes,No,No,,Yes,No,,2
gordo-taqueria-berkeley,Gordo Taqueria,['mexican'],37.8564217686653,-122.252938449383,CA,"103 Sproul hall Berkeley, CA 94720",1549.2522052836123,4.0,528,False,No,No,Yes,Yes,,Lunch,Street,Yes,Yes,Yes,No,Casual,Casual,Average,No,No,No,No,,No,No,,1
la-mediterranee-berkeley,La Mediterranee,"['mediterranean', 'mideastern', 'ethnicmarkets']",37.8575706,-122.2533722,CA,"103 Sproul hall Berkeley, CA 94720",1409.6211575218656,3.5,967,False,Yes,No,Yes,Yes,,Dinner,Street,Yes,Yes,Yes,Yes,Casual,Casual,Average,Beer & Wine Only,Yes,No,No,Yes,Yes,Yes,,2
bongo-burger-berkeley,Bongo Burger,"['hotdogs', 'burgers']",37.8702888,-122.2664337,CA,"103 Sproul hall Berkeley, CA 94720",676.2985671869773,3.5,168,False,No,No,Yes,Yes,,Lunch,Street,Yes,Yes,Yes,Yes,Casual,Casual,Average,No,Yes,No,No,,No,No,No,1
da-lian-berkeley,Da Lian,['chinese'],37.877052,-122.269053,CA,"103 Sproul hall Berkeley, CA 94720",1231.7745240592453,4.0,252,False,Yes,No,Yes,Yes,,"Lunch, Dinner",Street,Yes,Yes,Yes,Yes,Casual,Casual,Quiet,Beer & Wine Only,No,No,No,,Yes,Yes,,2
king-dong-chinese-restaurant-berkeley,King Dong Chinese Restaurant,['chinese'],37.865142,-122.267105,CA,"103 Sproul hall Berkeley, CA 94720",869.9372256267701,3.5,315,False,No,Yes,Yes,Yes,,"Lunch, Dinner",Street,Yes,Yes,Yes,Yes,Casual,Casual,Average,Beer & Wine Only,No,No,Yes,,Yes,Yes,,1
turkish-kitchen-berkeley-2,Turkish Kitchen,['turkish'],37.8723602,-122.2687302,CA,"103 Sproul hall Berkeley, CA 94720",933.2182031990304,3.5,326,False,No,No,Yes,Yes,,"Lunch, Dinner",Street,Yes,Yes,Yes,Yes,Casual,Casual,Average,Beer & Wine Only,No,No,Yes,,Yes,Yes,,2
wat-mongkolratanaram-berkeley,Wat Mongkolratanaram,"['thai', 'buddhist_temples']",37.856425093302,-122.27067686843,CA,"103 Sproul hall Berkeley, CA 94720",1790.8097102920556,4.0,641,False,No,No,Yes,No,,Brunch,Street,Yes,Yes,Yes,Yes,Casual,Casual,Average,No,Yes,No,No,,No,No,,1
taqueria-la-familia-berkeley-2,Taqueria La Familia,['mexican'],37.8557585924864,-122.266521826386,CA,"103 Sproul hall Berkeley, CA 94720",1679.8489372548713,4.0,265,False,No,No,Yes,Yes,,Lunch,Street,Yes,Yes,Yes,Yes,Casual,Casual,Average,Beer & Wine Only,Yes,No,No,,No,No,,1
rick-and-anns-restaurant-berkeley,Rick & Ann's Restaurant,"['breakfast_brunch', 'tradamerican', 'diners']",37.8584976,-122.2440567,CA,"103 Sproul hall Berkeley, CA 94720",1765.5971580616347,3.5,667,False,No,No,Yes,Yes,,Breakfast,Street,Yes,Yes,Yes,Yes,Casual,Casual,Average,Beer & Wine Only,Yes,No,No,,Yes,Yes,,2
arinell-pizza-berkeley-2,Arinell Pizza,['pizza'],37.8708936274052,-122.267679870129,CA,"103 Sproul hall Berkeley, CA 94720",789.6336269475523,4.0,429,False,No,No,Yes,No,,Lunch,Street,Yes,Yes,Yes,No,Casual,Casual,Average,No,No,No,No,,No,No,,1
celias-berkeley,Celia's,['mexican'],37.87558,-122.259987,CA,"103 Sproul hall Berkeley, CA 94720",664.7167854319548,3.5,151,False,Yes,No,Yes,Yes,,"Lunch, Dinner",Street,Yes,Yes,Yes,Yes,Casual,Casual,Average,Full Bar,No,No,Yes,,Yes,Yes,,2
burgermeister-berkeley,BurgerMeister,"['hotdog', 'burgers', 'newamerican']",37.8686352074146,-122.267737537622,CA,"103 Sproul hall Berkeley, CA 94720",785.6144527252989,3.0,326,False,No,No,Yes,Yes,,Lunch,Street,Yes,Yes,Yes,Yes,Casual,Casual,Average,Beer & Wine Only,No,No,Yes,,No,No,No,2
césar-berkeley-2,César,['tapas'],37.879644,-122.269032,CA,"103 Sproul hall Berkeley, CA 94720",1442.43177098026,3.5,523,False,No,No,Yes,Yes,,Dinner,Street,Yes,Yes,No,Yes,Casual,Trendy,Average,Full Bar,Yes,No,No,,Yes,No,,3
saigon-express-berkeley,Saigon Express,['vietnamese'],37.871403047,-122.26755310096,CA,"103 Sproul hall Berkeley, CA 94720",798.5853230111805,3.5,223,False,No,No,Yes,Yes,,Lunch,Street,Yes,Yes,Yes,Yes,Casual,Casual,Quiet,No,No,No,No,,Yes,Yes,,1
los-cilantros-berkeley-2,Los Cilantros,['mexican'],37.852817,-122.265882,CA,"103 Sproul hall Berkeley, CA 94720",1957.8046409210274,4.5,63,False,No,No,Yes,Yes,,Brunch,Street,Yes,,Yes,Yes,Casual,Casual,Average,Beer & Wine Only,Yes,,No,,Yes,,,2
cafe-clem-berkeley,Cafe Clem,"['french', 'coffee', 'sandwiches']",37.8678207,-122.2694321,CA,"103 Sproul hall Berkeley, CA 94720",944.1205130937832,3.5,138,False,No,No,Yes,Yes,,Breakfast,Street,Yes,Yes,Yes,Yes,Casual,Casual,Quiet,No,Yes,Free,No,,No,Yes,,2
manpuku-berkeley,Manpuku,['japanese'],37.8566589,-122.2527008,CA,"103 Sproul hall Berkeley, CA 94720",1524.6245046069312,3.5,1049,False,No,No,Yes,Yes,,"Lunch, Dinner",Street,Yes,Yes,Yes,No,Casual,Casual,Average,No,No,No,No,,No,Yes,,1
jazz-caffe-berkeley,Jazz Caffe,"['sandwiches', 'newamerican', 'coffee']",37.8712692,-122.2686996,CA,"103 Sproul hall Berkeley, CA 94720",910.517038316971,4.0,36,False,No,No,Yes,Yes,,Lunch,Street,Yes,Yes,No,Yes,Casual,Casual,Quiet,Beer & Wine Only,No,No,No,,Yes,Yes,,1
tamon-tea-berkeley-3,Tamon Tea,"['coffee', 'japanese']",37.870417,-122.269287,CA,"103 Sproul hall Berkeley, CA 94720",927.9853095830563,4.5,41,False,No,No,Yes,Yes,,Brunch,Garage,Yes,,Yes,No,Casual,,Quiet,No,No,No,No,,No,Yes,,1
healthy-heavenly-foods-berkeley,Healthy Heavenly Foods,"['vietnamese', 'foodtrucks']",37.8749888949328,-122.24495887756301,CA,"103 Sproul hall Berkeley, CA 94720",1357.542827161504,4.0,26,False,No,No,Yes,Yes,,Lunch,Street,,Yes,Yes,Yes,Casual,Casual,Average,No,Yes,No,No,,No,Yes,,1
guerilla-cafe-berkeley,Guerilla Cafe,"['coffee', 'breakfast_brunch']",37.877924,-122.2693152,CA,"103 Sproul hall Berkeley, CA 94720",1315.8272449441251,3.5,487,False,No,No,Yes,Yes,,"Breakfast, Brunch",Street,Yes,Yes,Yes,No,Casual,Hipster,Average,Beer & Wine Only,Yes,No,No,,Yes,No,,2
southie-oakland,Southie,"['sandwiches', 'newamerican']",37.8506388293851,-122.252578996727,CA,"103 Sproul hall Berkeley, CA 94720",2167.457409739323,4.5,460,False,No,No,Yes,Yes,,Lunch,Street,Yes,Yes,No,No,Casual,Casual,Average,Beer & Wine Only,No,No,Yes,,Yes,No,,2
barneys-gourmet-hamburgers-berkeley-2,Barney's Gourmet Hamburgers,['burgers'],37.8780899,-122.2695084,CA,"103 Sproul hall Berkeley, CA 94720",1335.4612390450086,3.5,521,False,No,No,Yes,Yes,,"Lunch, Dinner",Street,Yes,Yes,Yes,Yes,Casual,Casual,Average,Beer & Wine Only,Yes,No,Yes,,Yes,No,No,2
sauls-restaurant-and-delicatessen-berkeley,Saul's Restaurant & Delicatessen,"['delis', 'diners', 'breakfast_brunch']",37.880718,-122.268929,CA,"103 Sproul hall Berkeley, CA 94720",1532.4265770768209,3.5,972,False,Yes,Yes,Yes,Yes,No,Lunch,Street,Yes,Yes,Yes,Yes,Casual,Casual,Average,Full Bar,No,Free,No,Yes,Yes,Yes,,2
tako-sushi-berkeley,Tako Sushi,['japanese'],37.867282,-122.258781,CA,"103 Sproul hall Berkeley, CA 94720",247.38660377155128,3.0,448,False,No,Yes,Yes,Yes,,Lunch,Street,Yes,Yes,Yes,Yes,Casual,Casual,Average,No,Yes,No,No,,Yes,Yes,,1
sunrise-deli-berkeley,Sunrise Deli,['mideastern'],37.868305,-122.260177,CA,"103 Sproul hall Berkeley, CA 94720",181.64835794599566,3.5,172,False,No,No,Yes,Yes,,Lunch,Street,Yes,Yes,Yes,No,Casual,Casual,Average,No,No,No,No,,No,Yes,,1
the-starry-plough-berkeley,The Starry Plough,"['musicvenues', 'newamerican', 'pubs']",37.852985,-122.265922,CA,"103 Sproul hall Berkeley, CA 94720",1941.106262268633,4.0,228,False,No,No,Yes,Yes,,"Dinner, Late Night",Street,Yes,Yes,No,Yes,Casual,Casual,Average,Beer & Wine Only,No,Free,Yes,No,No,No,,2
la-burrita-berkeley-2,La Burrita,"['mexican', 'salad', 'juicebars']",37.8755608,-122.260437,CA,"103 Sproul hall Berkeley, CA 94720",691.617975291423,3.0,188,False,No,No,Yes,Yes,,Lunch,Street,Yes,Yes,Yes,Yes,Casual,Casual,Average,Beer & Wine Only,Yes,No,Yes,,No,Yes,,1
oscars-berkeley,Oscar's,"['burgers', 'hotdog']",37.87400533608301,-122.26884627148,CA,"103 Sproul hall Berkeley, CA 94720",1015.4871467894549,3.0,241,False,No,No,Yes,Yes,,Lunch,Private Lot,Yes,Yes,Yes,Yes,Casual,Casual,Average,No,No,No,Yes,,No,No,Yes,1
café-gratitude-berkeley-2,Café Gratitude,"['vegetarian', 'raw_food', 'vegan']",37.875957,-122.269073,CA,"103 Sproul hall Berkeley, CA 94720",1152.6125406720344,3.5,851,False,No,No,Yes,Yes,,"Lunch, Dinner",Street,Yes,Yes,Yes,Yes,Casual,Casual,Average,Beer & Wine Only,Yes,No,No,,Yes,Yes,,2
international-house-cafe-berkeley,International House Cafe,"['coffee', 'breakfast_brunch', 'cafes']",37.8693886,-122.251976,CA,"103 Sproul hall Berkeley, CA 94720",595.473429330332,3.0,102,False,No,No,Yes,Yes,,Lunch,Street,Yes,Yes,No,Yes,Casual,Casual,Average,Beer & Wine Only,Yes,Free,No,,No,No,,1
andy-and-cindys-berkeley,Andy & Cindy's,['thai'],37.8696893339941,-122.272789478302,CA,"103 Sproul hall Berkeley, CA 94720",1230.0635319410774,4.0,35,False,No,No,Yes,No,,Lunch,Street,,Yes,Yes,Yes,Casual,,Average,No,Yes,No,No,,No,Yes,,1
fertile-grounds-cafe-berkeley,Fertile Grounds Cafe,"['coffee', 'cafes']",37.8749383985996,-122.268825173378,CA,"103 Sproul hall Berkeley, CA 94720",1071.3120173900882,4.0,176,False,No,No,Yes,Yes,,Breakfast,Street,Yes,Yes,No,No,Casual,Casual,Quiet,No,Yes,Free,No,,No,No,,1
pappys-grill-and-sports-bar-berkeley-2,Pappy's Grill & Sports Bar,"['bbq', 'sportsbars']",37.8674684464931,-122.258890941739,CA,"103 Sproul hall Berkeley, CA 94720",230.61538111431273,3.0,210,False,No,No,Yes,Yes,,Late Night,"Garage, Street, Private Lot, Validated",Yes,Yes,No,Yes,Casual,Casual,Loud,Full Bar,Yes,Free,Yes,Yes,No,Yes,,1
e-z-stop-deli-berkeley,E-Z Stop Deli,"['delis', 'beer_and_wine', 'convenience']",37.8687286,-122.2674713,CA,"103 Sproul hall Berkeley, CA 94720",798.0638937028772,4.0,82,False,No,No,Yes,Yes,,Lunch,Street,,Yes,Yes,No,Casual,,Average,Beer & Wine Only,No,,No,,No,,,1
trattoria-la-siciliana-berkeley,Trattoria La Siciliana,['italian'],37.8563842177391,-122.252934426069,CA,"103 Sproul hall Berkeley, CA 94720",1555.8107036554873,3.5,1089,False,Yes,No,Yes,No,,Dinner,Street,No,No,No,No,Casual,Casual,Loud,Beer & Wine Only,No,No,No,,Yes,No,,2
nations-giant-hamburgers-berkeley,Nation's Giant Hamburgers,"['burgers', 'bakeries', 'diners']",37.8709717,-122.2749329,CA,"103 Sproul hall Berkeley, CA 94720",1419.7333732877203,3.5,247,False,No,No,Yes,Yes,,Late Night,Private Lot,Yes,Yes,Yes,Yes,Casual,Casual,Average,No,No,No,No,,No,No,No,1
original-pollo-berkeley-10,Original Pollo,"['tradamerican', 'sandwiches', 'breakfast_brunch']",37.871082,-122.267952,CA,"103 Sproul hall Berkeley, CA 94720",823.6365467208901,3.5,92,False,No,No,Yes,Yes,,Lunch,Street,Yes,Yes,Yes,Yes,Casual,Casual,Quiet,No,Yes,Free,Yes,,No,No,,1
zabu-zabu-berkeley-2,Zabu Zabu,"['japanese', 'sushi']",37.8711815,-122.2718887,CA,"103 Sproul hall Berkeley, CA 94720",1159.0952393282892,3.5,629,False,Yes,No,Yes,Yes,,Dinner,Street,No,Yes,Yes,Yes,Casual,Casual,Average,Full Bar,Yes,No,Yes,,Yes,No,,2
flacos-berkeley,Flacos,"['mexican', 'vegan', 'foodstands']",37.853848,-122.268929,CA,"103 Sproul hall Berkeley, CA 94720",1957.9666644531765,4.0,481,False,No,No,Yes,Yes,,Lunch,"Street, Private Lot",Yes,Yes,Yes,No,Casual,Casual,Average,No,Yes,No,No,,No,Yes,,1
little-plearn-thai-kitchen-berkeley-2,Little Plearn Thai Kitchen,['thai'],37.8679619,-122.2673721,CA,"103 Sproul hall Berkeley, CA 94720",789.5940582741516,3.5,121,False,No,No,Yes,No,,Lunch,Street,Yes,Yes,Yes,Yes,Casual,Casual,Average,Beer & Wine Only,No,No,No,,Yes,Yes,,1
mokka-berkeley,Mokka,"['coffee', 'sandwiches']",37.85416,-122.259605,CA,"103 Sproul hall Berkeley, CA 94720",1687.0352597755618,4.0,200,False,No,No,Yes,Yes,,Breakfast,Street,Yes,Yes,Yes,Yes,Casual,Casual,Average,No,Yes,Free,No,,No,No,,1
osmanthus-oakland,Osmanthus,['asianfusion'],37.849129,-122.252158,CA,"103 Sproul hall Berkeley, CA 94720",2339.254644061888,4.0,183,False,Yes,No,Yes,Yes,,Dinner,Street,Yes,Yes,Yes,Yes,Casual,Trendy,Average,Full Bar,Yes,No,No,,Yes,Yes,,2
poulet-berkeley,Poulet,"['catering', 'newamerican']",37.8768806,-122.2686768,CA,"103 Sproul hall Berkeley, CA 94720",1191.9005945951208,3.0,111,False,No,No,Yes,Yes,,Lunch,Street,,Yes,Yes,No,Casual,Casual,Average,Beer & Wine Only,Yes,No,No,,No,Yes,,2
crossroads-berkeley,Crossroads,['buffets'],37.8668938,-122.2562943,CA,"103 Sproul hall Berkeley, CA 94720",354.6572980370464,3.0,69,False,No,No,Yes,Yes,,Lunch,Street,Yes,Yes,Yes,Yes,Casual,Casual,Loud,No,Yes,Free,No,,No,Yes,,1
long-life-vegi-house-berkeley,Long Life Vegi House,"['chinese', 'vegetarian']",37.872347,-122.267321,CA,"103 Sproul hall Berkeley, CA 94720",813.6597763653708,4.0,287,False,Yes,No,Yes,Yes,,"Lunch, Dinner",Street,Yes,Yes,Yes,Yes,Casual,Casual,Quiet,Beer & Wine Only,No,No,No,,Yes,No,,1
the-smokehouse-berkeley,The Smokehouse,['burgers'],37.8531726,-122.2597991,CA,"103 Sproul hall Berkeley, CA 94720",1818.4904488637164,3.5,312,False,No,No,Yes,Yes,,"Lunch, Dinner, Late Night",Street,Yes,Yes,Yes,Yes,Casual,Casual,Average,No,Yes,No,No,,No,No,No,1
sushi-ko-berkeley,Sushi Ko,"['sushi', 'japanese']",37.871606,-122.267881,CA,"103 Sproul hall Berkeley, CA 94720",832.4240960666691,3.5,296,False,Yes,Yes,Yes,Yes,,Dinner,Street,Yes,Yes,Yes,Yes,Casual,Casual,Quiet,Beer & Wine Only,No,No,Yes,No,Yes,Yes,,2
party-sushi-berkeley,Party Sushi,"['sushi', 'japanese']",37.8752509,-122.2689199,CA,"103 Sproul hall Berkeley, CA 94720",1095.63111755466,3.5,164,False,Yes,No,Yes,Yes,,Dinner,Street,Yes,Yes,Yes,Yes,Casual,Casual,Average,Beer & Wine Only,No,No,No,No,Yes,Yes,,2
norikonoko-japanese-restaurant-berkeley,Norikonoko Japanese Restaurant,['japanese'],37.8639183044434,-122.258941650391,CA,"103 Sproul hall Berkeley, CA 94720",621.5781763577784,3.5,293,False,Yes,No,Yes,Yes,,Dinner,Street,Yes,Yes,Yes,No,Casual,Casual,Quiet,Beer & Wine Only,No,No,No,,Yes,No,,2
cafe-panini-berkeley,Cafe Panini,['sandwiches'],37.8697395,-122.2671967,CA,"103 Sproul hall Berkeley, CA 94720",741.7500208923283,3.5,98,False,No,No,Yes,Yes,,Lunch,Street,,Yes,Yes,Yes,Casual,,Average,No,Yes,Free,No,,No,Yes,,1
smokey-js-q-house-bbq-berkeley,Smokey J's Q House BBQ,['bbq'],37.8545454,-122.2663881,CA,"103 Sproul hall Berkeley, CA 94720",1792.756996617317,3.5,332,False,No,No,Yes,No,,Lunch,Street,Yes,Yes,Yes,Yes,Casual,Casual,Average,Beer & Wine Only,Yes,No,No,Yes,No,Yes,,2
sabor-mexicano-salsas-berkeley,Sabor Mexicano Salsas,"['mexican', 'gourmet']",37.869347,-122.266785,CA,"103 Sproul hall Berkeley, CA 94720",703.0589103017303,5.0,4,False,,,,,,,,,,,,,,,,,,,,,,,
heat-cafe-berkeley-2,Heat Cafe,['chinese'],37.865908741951,-122.267718762159,CA,"103 Sproul hall Berkeley, CA 94720",889.8401310655643,4.0,21,False,No,,Yes,Yes,,,,Yes,,Yes,Yes,Casual,,Average,No,No,No,No,,Yes,,,1
chipotle-mexican-grill-berkeley-4,Chipotle Mexican Grill,"['mexican', 'hotdogs']",37.868351,-122.258873,CA,"103 Sproul hall Berkeley, CA 94720",129.0300008822229,3.0,265,False,No,No,Yes,Yes,,Lunch,Street,Yes,Yes,Yes,No,Casual,Casual,Average,Beer & Wine Only,Yes,No,No,,No,Yes,No,1
crepes-ooh-lala-berkeley,Crepes Ooh LaLa,['creperies'],37.8725815,-122.2674408,CA,"103 Sproul hall Berkeley, CA 94720",843.0724857454502,3.5,258,False,No,No,Yes,Yes,,"Breakfast, Lunch, Dessert",Street,Yes,Yes,Yes,No,Casual,Casual,Quiet,No,Yes,No,No,,No,No,,1
d-yar-berkeley,D'Yar,['mediterranean'],37.8680382,-122.2584915,CA,"103 Sproul hall Berkeley, CA 94720",167.21306095244321,3.5,209,False,No,No,Yes,Yes,,Lunch,Street,Yes,Yes,Yes,Yes,Casual,Casual,Average,No,No,No,No,,No,No,,1
celias-mexican-catering-berkeley,Celia's Mexican Catering,"['ethnicmarkets', 'mexican']",37.87558,-122.259987,CA,"103 Sproul hall Berkeley, CA 94720",683.6528331449715,4.5,10,False,Yes,Yes,Yes,Yes,,Lunch,,,,Yes,Yes,Casual,,,,Yes,,No,,No,Yes,,2
racha-cafe-berkeley,Racha Cafe,['thai'],37.8643951,-122.2586899,CA,"103 Sproul hall Berkeley, CA 94720",537.0199963228098,3.5,346,False,Yes,Yes,Yes,Yes,,"Lunch, Dinner",Street,Yes,Yes,Yes,Yes,Casual,Casual,Average,Beer & Wine Only,No,No,No,,Yes,Yes,,1
steves-bar-b-que-berkeley,Steve's Bar-B-Que,"['korean', 'bbq']",37.8682098,-122.2580338,CA,"103 Sproul hall Berkeley, CA 94720",174.97011433145192,3.5,377,False,No,No,Yes,Yes,,"Lunch, Dinner",Street,Yes,Yes,Yes,Yes,Casual,Casual,Average,No,Yes,No,No,,No,No,,1
a-g-ferrari-foods-berkeley-6,A.G. Ferrari Foods,"['delis', 'gourmet', 'cafes']",37.858156,-122.252841,CA,"103 Sproul hall Berkeley, CA 94720",1365.5273303599631,4.0,47,False,No,Yes,Yes,Yes,No,Lunch,Street,Yes,Yes,Yes,No,Casual,,,Beer & Wine Only,Yes,Free,No,,No,Yes,,2
yalis-oxford-street-cafe-berkeley,Yali's Oxford Street Cafe,['cafes'],37.873458576501,-122.26644752103,CA,"103 Sproul hall Berkeley, CA 94720",803.9125380038616,3.5,168,False,No,No,Yes,Yes,,Breakfast,Street,Yes,Yes,Yes,Yes,Casual,Casual,Average,No,Yes,Free,No,,No,Yes,,1
fresh-and-best-berkeley,Fresh And Best,"['asianfusion', 'sandwiches', 'tradamerican']",37.8585125505924,-122.243947014213,CA,"103 Sproul hall Berkeley, CA 94720",1783.9374767189145,4.0,25,False,No,No,Yes,Yes,,Lunch,Street,Yes,Yes,Yes,No,Casual,,Quiet,No,Yes,No,No,,Yes,Yes,,1
the-coffee-lab-berkeley-2,The Coffee Lab,"['coffee', 'cafes']",37.8727784971583,-122.255591154098,CA,"103 Sproul hall Berkeley, CA 94720",458.91347010976466,4.0,23,False,No,No,Yes,No,,,,Yes,Yes,Yes,No,Casual,,,,Yes,No,,,No,,,1
west-coast-pizza-berkeley,West Coast Pizza,['pizza'],37.8709110617638,-122.277227193117,CA,"103 Sproul hall Berkeley, CA 94720",1626.0668002776956,3.5,172,False,No,Yes,Yes,Yes,,Late Night,Street,Yes,Yes,Yes,Yes,Casual,Casual,Average,No,No,No,No,,No,Yes,,1
ucafe-berkeley,UCafe,"['cafes', 'bakeries', 'bubbletea']",37.8678818,-122.2568512,CA,"103 Sproul hall Berkeley, CA 94720",222.97917093844362,3.0,96,False,No,No,Yes,Yes,,Dessert,Street,Yes,,Yes,Yes,Casual,Casual,Average,No,No,No,No,,No,No,,1
trappist-provisions-oakland,Trappist Provisions,"['bars', 'belgian']",37.8505242615938,-122.252463027835,CA,"103 Sproul hall Berkeley, CA 94720",2178.324457040145,4.0,91,False,No,No,No,Yes,,,Street,Yes,,No,Yes,Casual,Casual,Quiet,Beer & Wine Only,No,No,No,,No,No,,2
tikka-korner-berkeley,Tikka Korner,"['indpak', 'pakistani']",37.8722635656595,-122.268225699663,CA,"103 Sproul hall Berkeley, CA 94720",895.3477748292335,2.5,51,False,Yes,No,Yes,No,,"Lunch, Dinner",Street,No,,Yes,Yes,Casual,Casual,Average,No,No,Free,Yes,,Yes,Yes,,1
extreme-pizza-berkeley,Extreme Pizza,['pizza'],37.8662109,-122.2682724,CA,"103 Sproul hall Berkeley, CA 94720",910.3627334181195,3.0,179,False,No,Yes,Yes,Yes,,"Lunch, Dinner",Street,Yes,Yes,Yes,Yes,Casual,Divey,Average,Beer & Wine Only,Yes,No,Yes,,No,No,,2
lindgrens-coffee-and-cafe-berkeley,Lindgren's Coffee and Cafe,"['cafes', 'coffee', 'breakfast_brunch']",37.8640090674162,-122.266767248511,CA,"103 Sproul hall Berkeley, CA 94720",921.4658474538875,3.5,154,False,No,No,Yes,Yes,,Brunch,Street,Yes,Yes,Yes,Yes,Casual,Casual,Average,Beer & Wine Only,Yes,Free,No,Yes,No,Yes,,1
cafe-zeb-berkeley,Cafe Zeb,"['breakfast_brunch', 'coffee', 'cafes']",37.8698650746468,-122.253123521805,CA,"103 Sproul hall Berkeley, CA 94720",497.94531149529627,3.5,33,False,No,No,Yes,Yes,,Lunch,Street,Yes,Yes,No,Yes,Casual,Casual,Average,No,Yes,Free,No,,No,No,,1
himalayan-flavors-berkeley,Himalayan Flavors,"['indpak', 'himalayan']",37.8707035423514,-122.280471324921,CA,"103 Sproul hall Berkeley, CA 94720",1908.8271136692726,4.0,255,False,Yes,Yes,Yes,Yes,,Dinner,Private Lot,Yes,Yes,Yes,Yes,Casual,Casual,Quiet,Beer & Wine Only,No,Free,No,,Yes,Yes,,2
pat-browns-grill-berkeley,Pat Brown's Grill,"['tradamerican', 'sandwiches', 'salad']",37.873314164777796,-122.264895737171,CA,"103 Sproul hall Berkeley, CA 94720",683.801285483433,3.0,19,False,No,No,Yes,Yes,,Lunch,,Yes,,No,No,Casual,,Loud,No,Yes,Free,No,,No,No,,1
kimchi-garden-berkeley,Kimchi Garden,['korean'],37.868183,-122.258262,CA,"103 Sproul hall Berkeley, CA 94720",154.03930137636192,3.0,136,False,No,No,Yes,Yes,,"Lunch, Dinner",Street,Yes,Yes,Yes,Yes,Casual,Casual,Average,Beer & Wine Only,No,Free,Yes,,No,Yes,,1
pizza-moda-berkeley,Pizza Moda,"['italian', 'pizza']",37.8702981,-122.2840615,CA,"103 Sproul hall Berkeley, CA 94720",2221.0702105750042,4.0,223,False,Yes,No,Yes,Yes,,Dinner,Private Lot,Yes,Yes,Yes,Yes,Casual,Casual,Average,Beer & Wine Only,No,Free,No,No,Yes,Yes,,2
ichiban-restaurant-berkeley,Ichiban Restaurant,"['japanese', 'sushi']",37.8717918,-122.2674713,CA,"103 Sproul hall Berkeley, CA 94720",816.8641839540392,3.0,164,False,Yes,Yes,Yes,Yes,,Dinner,Street,Yes,Yes,Yes,Yes,Casual,Casual,Quiet,Beer & Wine Only,No,Free,No,,Yes,Yes,,2
ashby-marketplace-berkeley,Ashby Marketplace,"['grocery', 'delis']",37.856724,-122.253525,CA,"103 Sproul hall Berkeley, CA 94720",1494.3058505181982,4.5,76,False,No,No,Yes,Yes,,Lunch,Street,Yes,Yes,Yes,No,Casual,Casual,Quiet,No,No,No,No,No,No,No,,2
fraustos-restaurant-berkeley,Frausto's Restaurant,"['mexican', 'ethnicmarkets']",37.8636462986469,-122.267545759678,CA,"103 Sproul hall Berkeley, CA 94720",1009.2739410045142,3.0,79,False,Yes,No,Yes,Yes,,Lunch,Street,Yes,Yes,Yes,Yes,Casual,Casual,Average,Beer & Wine Only,No,No,Yes,,Yes,Yes,,1
house-of-curries-berkeley,House of Curries,"['indpak', 'halal', 'pakistani']",37.8564566373825,-122.253056466579,CA,"103 Sproul hall Berkeley, CA 94720",1535.581867655994,3.5,475,False,No,No,Yes,Yes,,"Lunch, Dinner",Street,Yes,Yes,Yes,Yes,Casual,Casual,Average,No,Yes,No,No,,No,Yes,,1
fat-apples-restaurant-and-bakery-berkeley,Fat Apple's Restaurant & Bakery,"['bakeries', 'burgers', 'breakfast_brunch']",37.8815498,-122.2743301,CA,"103 Sproul hall Berkeley, CA 94720",1911.7235672838026,3.5,338,False,No,No,Yes,Yes,,Breakfast,Street,Yes,Yes,Yes,Yes,Casual,Casual,Average,Beer & Wine Only,No,No,No,,Yes,No,No,2
red-tomato-pizza-house-berkeley-2,Red Tomato Pizza House,"['pizza', 'vegan', 'gluten_free']",37.8722496,-122.2701263,CA,"103 Sproul hall Berkeley, CA 94720",1050.8767788275977,3.5,77,False,No,Yes,Yes,Yes,,Dinner,Street,Yes,,Yes,Yes,Casual,Casual,Average,Beer & Wine Only,No,Free,Yes,,No,Yes,,1
foleys-deli-berkeley,Foley's Deli,['sandwiches'],37.8682709,-122.2593536,CA,"103 Sproul hall Berkeley, CA 94720",138.9882326561032,4.5,4,False,No,No,Yes,Yes,,,,,,Yes,Yes,,,,,,,,,,,,
nabolom-bakery-berkeley,Nabolom Bakery,"['bakeries', 'coffee', 'vegan']",37.8584682941437,-122.252709120512,CA,"103 Sproul hall Berkeley, CA 94720",1328.9707950758868,4.0,197,False,No,No,Yes,Yes,,Breakfast,Street,Yes,Yes,Yes,Yes,Casual,Casual,Quiet,No,Yes,Free,No,,No,No,,1
fat-slice-pizza-berkeley,Fat Slice Pizza,['pizza'],37.86721,-122.258583,CA,"103 Sproul hall Berkeley, CA 94720",256.07701321312965,3.5,480,False,No,No,Yes,Yes,,"Lunch, Dinner, Late Night",Street,Yes,Yes,Yes,Yes,Casual,Casual,Average,No,No,No,No,,No,No,,1
golden-bear-cafe-berkeley,Golden Bear Cafe,"['sandwiches', 'food', 'cafes']",37.8698057886903,-122.259603738785,CA,"103 Sproul hall Berkeley, CA 94720",79.73493278578518,3.0,48,False,No,No,Yes,Yes,,Lunch,,Yes,Yes,Yes,Yes,Casual,Casual,Loud,No,Yes,Free,No,,No,No,,2
meritage-berkeley,Meritage,"['french', 'breakfast_brunch']",37.859252,-122.240364,CA,"103 Sproul hall Berkeley, CA 94720",1895.6155883576994,3.5,152,False,Yes,No,No,Yes,,Dinner,Validated,Yes,Yes,No,Yes,Dressy,Classy,Average,Full Bar,No,No,No,,Yes,No,,3
cup-story-berkeley,Cup Story,"['korean', 'hotdogs']",37.8672540653263,-122.258903346956,CA,"103 Sproul hall Berkeley, CA 94720",250.73381820367786,3.0,38,False,No,No,Yes,Yes,,Lunch,Street,Yes,,Yes,No,Casual,Casual,Average,No,No,No,No,,No,No,No,1
easy-creole-berkeley,Easy Creole,['cajun'],37.8487361392759,-122.272188998759,CA,"103 Sproul hall Berkeley, CA 94720",2592.369335961582,4.5,276,False,No,No,Yes,Yes,,Dinner,Street,Yes,,Yes,Yes,Casual,Casual,Average,No,No,No,No,,No,Yes,,1
dyar-mediterranean-cuisine-berkeley,Dyar Mediterranean Cuisine,['mediterranean'],37.8749068427769,-122.260386237926,CA,"103 Sproul hall Berkeley, CA 94720",616.8255042164482,3.0,23,False,No,No,Yes,Yes,,Lunch,Street,Yes,,Yes,No,Casual,,Average,No,No,No,No,,No,,,1
himalayan-tandoori-and-curry-house-berkeley,Himalayan Tandoori & Curry House,"['himalayan', 'indpak']",37.8913193,-122.283432,CA,"103 Sproul hall Berkeley, CA 94720",3251.7441695804177,4.5,47,False,Yes,Yes,Yes,Yes,,Dessert,Street,Yes,Yes,Yes,Yes,Casual,Divey,Average,Beer & Wine Only,No,Free,No,,Yes,Yes,,2
royal-ground-coffee-house-berkeley,Royal Ground Coffee House,"['coffee', 'bagels', 'sandwiches']",37.8656006,-122.266983,CA,"103 Sproul hall Berkeley, CA 94720",851.8603513010428,3.0,135,False,No,No,Yes,Yes,,"Breakfast, Brunch",Street,Yes,Yes,Yes,Yes,Casual,,Average,No,No,Free,No,,No,No,,1
cugini-manzone-berkeley,Cugini Manzone,"['italian', 'pizza']",37.8578510185821,-122.253239862621,CA,"103 Sproul hall Berkeley, CA 94720",1384.2503034250274,3.5,54,False,Yes,No,Yes,Yes,,Dinner,Street,Yes,,Yes,Yes,Casual,Casual,Average,Beer & Wine Only,Yes,Free,Yes,,Yes,No,,2
lotus-house-berkeley,Lotus House,"['coffee', 'chinese']",37.868183,-122.258263,CA,"103 Sproul hall Berkeley, CA 94720",154.03930137636192,3.0,212,False,No,No,Yes,No,,"Lunch, Dinner",Street,Yes,No,Yes,Yes,Casual,Casual,Average,No,No,No,Yes,,No,No,,1
indian-flavors-express-berkeley,Indian Flavors Express,"['indpak', 'buffets']",37.8688155859709,-122.258082926273,CA,"103 Sproul hall Berkeley, CA 94720",111.69208710059043,3.5,161,False,Yes,No,Yes,Yes,,"Lunch, Dinner",Street,Yes,Yes,Yes,Yes,Casual,Casual,Average,Beer & Wine Only,Yes,Free,No,,No,No,,1
nuhas-cafe-berkeley,Nuha's Cafe,"['coffee', 'breakfast_brunch']",37.870384,-122.27034,CA,"103 Sproul hall Berkeley, CA 94720",1019.4904830902938,4.0,21,False,No,No,Yes,Yes,,Lunch,,,,Yes,No,Casual,,Quiet,No,Yes,No,No,,No,,,1
mim-thai-cuisine-berkeley,Mim Thai Cuisine,['thai'],37.8621429204941,-122.281883507967,CA,"103 Sproul hall Berkeley, CA 94720",2203.7455728909945,4.0,62,False,Yes,Yes,Yes,Yes,,Dinner,Street,,,Yes,Yes,Casual,Casual,Quiet,Beer & Wine Only,No,No,No,,Yes,,,2
imperial-tea-court-berkeley,Imperial Tea Court,"['coffee', 'chinese', 'tea']",37.8798103,-122.2688904,CA,"103 Sproul hall Berkeley, CA 94720",1450.0354628552504,3.5,250,False,Yes,No,Yes,Yes,,Lunch,Street,Yes,Yes,Yes,Yes,Casual,Casual,Quiet,Beer & Wine Only,Yes,No,No,,Yes,No,,2
paragon-restaurant-and-bar-berkeley,Paragon Restaurant & Bar,"['jazzandblues', 'lounges', 'newamerican']",37.859185709867,-122.242369004691,CA,"103 Sproul hall Berkeley, CA 94720",1841.7520527363517,3.5,481,False,Yes,No,No,Yes,,Dinner,Private Lot,Yes,Yes,No,Yes,Casual,Casual,Average,Full Bar,Yes,Free,Yes,No,Yes,No,,3
2640-dwight-way-berkeley,2640 Dwight Way,"['bars', 'asianfusion']",37.865334,-122.254661,CA,"103 Sproul hall Berkeley, CA 94720",588.1349906224102,4.0,4,False,Yes,Yes,No,Yes,,,,Yes,,Yes,Yes,Casual,,,,,,Yes,,Yes,,,1
t-c-garden-restaurant-berkeley,T C Garden Restaurant,['chinese'],37.8751590102911,-122.259818315506,CA,"103 Sproul hall Berkeley, CA 94720",639.0376776505839,2.5,94,False,No,No,Yes,No,,Lunch,Street,Yes,No,Yes,Yes,Casual,,Quiet,No,Yes,No,No,,Yes,,,1
chinese-express-berkeley,Chinese Express,['chinese'],37.8668186813593,-122.259129658341,CA,"103 Sproul hall Berkeley, CA 94720",304.18416925351005,3.5,102,False,No,No,Yes,No,,"Lunch, Dinner",Street,Yes,Yes,Yes,Yes,Casual,Casual,Quiet,No,No,No,No,,No,Yes,,1
la-mission-berkeley,La Mission,"['mexican', 'breakfast_brunch']",37.8698395883553,-122.287912028045,CA,"103 Sproul hall Berkeley, CA 94720",2557.5940529132376,4.0,592,False,No,No,Yes,Yes,,"Lunch, Dinner",Private Lot,Yes,Yes,Yes,Yes,Casual,Casual,Average,No,Yes,No,No,,No,Yes,,1
kips-bar-berkeley-2,Kip's Bar,"['burgers', 'bars']",37.868023,-122.259575,CA,"103 Sproul hall Berkeley, CA 94720",175.55040201201618,2.5,241,False,No,No,Yes,Yes,,Late Night,"Garage, Street, Validated",Yes,No,No,Yes,Casual,Casual,Very Loud,Full Bar,No,Paid,Yes,No,Yes,No,No,1
zing-cafe-berkeley,Zing Cafe,['cafes'],37.8535933792591,-122.269351556897,CA,"103 Sproul hall Berkeley, CA 94720",1990.4775108533652,4.5,17,False,No,No,Yes,Yes,,Lunch,Street,Yes,,Yes,Yes,Casual,Casual,Average,No,Yes,Free,No,,No,No,,1
rainbow-ranch-cafe-berkeley,Rainbow Ranch Cafe,"['coffee', 'sandwiches']",37.870827242732,-122.272991985083,CA,"103 Sproul hall Berkeley, CA 94720",1248.2731293375432,3.5,16,False,No,No,Yes,Yes,,Lunch,Street,,Yes,Yes,No,Casual,,Quiet,No,Yes,No,No,,No,,,1
crixa-cakes-berkeley,Crixa Cakes,"['bakeries', 'desserts', 'coffee']",37.8586502,-122.2681274,CA,"103 Sproul hall Berkeley, CA 94720",1447.6212187133121,4.5,565,False,No,No,Yes,Yes,,Dessert,Street,Yes,Yes,Yes,No,Casual,Casual,Average,No,Yes,No,No,,No,No,,2
dominos-pizza-berkeley-2,Domino's Pizza,"['pizza', 'chicken_wings', 'sandwiches']",37.872956,-122.267472,CA,"103 Sproul hall Berkeley, CA 94720",854.078092162718,2.0,129,False,No,Yes,Yes,Yes,,"Lunch, Dinner, Late Night",Street,Yes,,No,No,Casual,Casual,Average,No,No,No,No,,No,No,,1
bangkok-thai-cuisine-berkeley,Bangkok Thai Cuisine,['thai'],37.8704033,-122.283493,CA,"103 Sproul hall Berkeley, CA 94720",2163.568124635121,4.0,225,False,Yes,No,Yes,Yes,,"Lunch, Dinner","Street, Private Lot",Yes,Yes,Yes,Yes,Casual,Casual,Quiet,Beer & Wine Only,No,No,No,,Yes,Yes,,2
foothill-berkeley,Foothill,"['tradamerican', 'diners']",37.8755137324333,-122.25660033524,CA,"103 Sproul hall Berkeley, CA 94720",725.4291050776982,2.5,19,False,No,No,Yes,Yes,,Dinner,,,Yes,Yes,Yes,Casual,,Loud,No,No,Paid,Yes,,No,No,,1
homemade-cafe-berkeley,Homemade Cafe,"['tradamerican', 'breakfast_brunch']",37.86231009489,-122.28137681093,CA,"103 Sproul hall Berkeley, CA 94720",2139.100900591052,3.5,389,False,No,No,Yes,Yes,,Breakfast,Street,Yes,Yes,Yes,No,Casual,Casual,Average,Beer & Wine Only,Yes,No,No,,Yes,No,,1
semifreddis-bakery-berkeley,Semifreddi's Bakery,"['bakeries', 'coffee', 'cafes']",37.8542753309011,-122.248432338238,CA,"103 Sproul hall Berkeley, CA 94720",1917.30021998906,4.0,74,False,No,No,Yes,Yes,,Breakfast,Street,Yes,Yes,Yes,No,Casual,Casual,Quiet,No,Yes,Free,No,,Yes,,,1
taco-truck-berkeley,Taco Truck,['mexican'],37.8687286,-122.2592087,CA,"103 Sproul hall Berkeley, CA 94720",209.67862340997118,4.0,21,False,No,No,Yes,No,,Lunch,Street,,Yes,Yes,Yes,Casual,,,No,Yes,,,,No,,,1
aki-japanese-restaurant-berkeley,Aki Japanese Restaurant,['japanese'],37.8751536458731,-122.259858548641,CA,"103 Sproul hall Berkeley, CA 94720",639.2175952695684,3.0,56,False,No,No,Yes,Yes,,Lunch,Street,Yes,No,No,No,Casual,Casual,Quiet,,Yes,No,No,,Yes,No,,1
roxie-delicatessen-berkeley,Roxie Delicatessen,"['delis', 'desserts', 'breakfast_brunch']",37.855522,-122.266281,CA,"103 Sproul hall Berkeley, CA 94720",1688.744661965774,3.5,25,False,No,Yes,Yes,Yes,,Breakfast,Street,Yes,Yes,Yes,No,Casual,Casual,Average,Beer & Wine Only,Yes,Free,No,,No,No,,1
noodle-theory-oakland,Noodle Theory,"['asianfusion', 'ramen']",37.8492607,-122.2525755,CA,"103 Sproul hall Berkeley, CA 94720",2316.1822758524604,3.5,778,False,No,No,Yes,Yes,,Dinner,Street,Yes,Yes,Yes,No,Casual,Casual,Average,Beer & Wine Only,Yes,No,No,Yes,Yes,No,,2
bbq-hut-oakland,BBQ Hut,['bbq'],37.84968,-122.265605,CA,"103 Sproul hall Berkeley, CA 94720",2284.6528747245857,4.0,127,False,No,No,Yes,Yes,,Lunch,Private Lot,Yes,,Yes,Yes,Casual,Casual,Average,Beer & Wine Only,Yes,Paid,No,,No,Yes,,2
edoko-japanese-restaurant-berkeley,Edoko Japanese Restaurant,"['japanese', 'buffets', 'sushi']",37.8709127,-122.2769108,CA,"103 Sproul hall Berkeley, CA 94720",1599.3045502705827,3.0,169,False,Yes,Yes,Yes,Yes,,"Lunch, Dinner",Street,No,Yes,Yes,Yes,Casual,Casual,Quiet,Beer & Wine Only,No,Free,No,,Yes,Yes,,2
hasnia-berkeley,Hasnia,"['mediterranean', 'african']",37.8689919,-122.29039,CA,"103 Sproul hall Berkeley, CA 94720",2769.7217538713953,4.5,16,False,Yes,Yes,Yes,Yes,,Lunch,,Yes,,Yes,No,Casual,,Quiet,No,No,,Yes,,Yes,,,2
fondue-fred-berkeley,Fondue Fred,['fondue'],37.8639107,-122.2589417,CA,"103 Sproul hall Berkeley, CA 94720",627.084753004848,3.0,230,False,Yes,No,No,Yes,,Dinner,Street,Yes,Yes,Yes,Yes,Casual,Casual,Average,Beer & Wine Only,Yes,No,No,,Yes,No,,2
namaste-madras-cuisine-berkeley,Namaste Madras Cuisine,['indpak'],37.8672295,-122.2672729,CA,"103 Sproul hall Berkeley, CA 94720",786.9868213697744,3.5,130,False,Yes,Yes,Yes,Yes,,"Lunch, Dinner",Street,Yes,,Yes,Yes,Casual,Casual,Average,Beer & Wine Only,No,No,No,,Yes,Yes,,2
hot-cups-berkeley,Hot Cups,"['coffee', 'sandwiches']",37.8714409,-122.2674179,CA,"103 Sproul hall Berkeley, CA 94720",779.3515101945969,4.5,63,False,No,No,Yes,Yes,,Lunch,Street,No,Yes,Yes,No,Casual,Casual,Quiet,No,Yes,Free,No,,No,Yes,,1
cyprus-restaurant-berkeley,Cyprus Restaurant,"['persian', 'mediterranean', 'breakfast_brunch']",37.8717041,-122.2681656,CA,"103 Sproul hall Berkeley, CA 94720",851.1495112439056,3.5,98,False,No,No,Yes,Yes,,"Lunch, Dinner",Street,Yes,Yes,Yes,Yes,Casual,Casual,Quiet,No,Yes,Free,No,,Yes,Yes,,2
mcdonalds-berkeley,McDonald's,"['hotdogs', 'burgers']",37.872273466486,-122.26859055111,CA,"103 Sproul hall Berkeley, CA 94720",914.5981899016134,2.0,134,False,No,No,Yes,Yes,,Breakfast,Street,Yes,Yes,Yes,Yes,Casual,Divey,Average,No,No,Free,No,,No,No,No,1
ninos-brazilian-restaurant-and-pizzeria-berkeley,Nino's Brazilian Restaurant & Pizzeria,"['pizza', 'brazilian']",37.8728194534779,-122.273205220699,CA,"103 Sproul hall Berkeley, CA 94720",1324.5960097898842,3.0,102,False,Yes,Yes,Yes,Yes,,Dinner,Street,Yes,No,Yes,Yes,Casual,Divey,Quiet,Beer & Wine Only,No,,Yes,,Yes,No,,2
brick-pigs-house-oakland,Brick Pig's House,['bbq'],37.8455811,-122.2653809,CA,"103 Sproul hall Berkeley, CA 94720",2719.7222850900544,4.5,597,False,No,No,Yes,Yes,,"Lunch, Dinner",Street,No,Yes,Yes,No,Casual,Casual,Quiet,No,No,No,No,,No,Yes,,2
taqueria-monte-cristo-berkeley,Taqueria Monte Cristo,"['mexican', 'breakfast_brunch']",37.8700714,-122.2831726,CA,"103 Sproul hall Berkeley, CA 94720",2153.1575695483252,3.5,280,False,No,No,Yes,Yes,,"Dinner, Late Night",Private Lot,Yes,Yes,Yes,Yes,Casual,Casual,Average,Beer & Wine Only,Yes,No,No,,No,No,,1
gioia-pizzeria-berkeley,Gioia Pizzeria,['pizza'],37.881798,-122.281398,CA,"103 Sproul hall Berkeley, CA 94720",2410.318399944187,4.5,612,False,No,No,Yes,Yes,,Lunch,Street,Yes,Yes,Yes,No,Casual,Casual,Average,No,No,No,No,,No,No,,1
off-the-grid-north-berkeley-bart-berkeley,Off The Grid - North Berkeley Bart,"['foodtrucks', 'foodstands']",37.8730583,-122.2823486,CA,"103 Sproul hall Berkeley, CA 94720",2104.1362748789825,3.5,115,False,No,No,Yes,Yes,,Dinner,Street,Yes,,Yes,Yes,Casual,Casual,Average,No,Yes,No,No,,No,No,,2
toyo-japanese-restaurant-berkeley-2,Toyo Japanese Restaurant,['japanese'],37.880867,-122.268944,CA,"103 Sproul hall Berkeley, CA 94720",1551.8248068886398,3.0,82,False,No,No,Yes,Yes,,Lunch,Street,Yes,Yes,Yes,Yes,Casual,Casual,Quiet,Beer & Wine Only,No,No,No,,Yes,,,2
quickly-berkeley,Quickly,"['coffee', 'asianfusion', 'juicebars']",37.8682136535645,-122.258033752441,CA,"103 Sproul hall Berkeley, CA 94720",157.93997241234896,2.5,155,False,No,No,Yes,No,,Dessert,Street,No,Yes,Yes,No,Casual,Casual,Average,No,Yes,No,No,,No,No,,1
giin-thai-canteen-berkeley,Giin Thai Canteen,"['thai', 'ethnicmarkets']",37.8491128707654,-122.27161064744,CA,"103 Sproul hall Berkeley, CA 94720",2532.122962434531,4.0,43,False,No,No,Yes,Yes,,Lunch,Street,Yes,,Yes,No,Casual,Casual,Quiet,No,No,No,No,,No,Yes,,1
anh-hong-berkeley,Anh Hong,['vietnamese'],37.872354,-122.269123,CA,"103 Sproul hall Berkeley, CA 94720",961.6508647619731,3.5,289,False,Yes,No,Yes,Yes,,Dinner,"Garage, Street",Yes,Yes,Yes,Yes,Casual,Casual,Average,Beer & Wine Only,No,Free,Yes,No,Yes,No,,2
cafe-colucci-oakland,Cafe Colucci,['ethiopian'],37.8507294505835,-122.26054251194,CA,"103 Sproul hall Berkeley, CA 94720",2087.311574322865,4.0,831,False,No,No,Yes,Yes,,Dinner,Street,Yes,Yes,Yes,Yes,Casual,Casual,Average,Beer & Wine Only,Yes,No,No,,Yes,Yes,,2
the-original-berkeley-2,The Original,"['tradamerican', 'diners']",37.8685608,-122.2682571,CA,"103 Sproul hall Berkeley, CA 94720",830.4583184469286,2.0,231,False,No,No,Yes,Yes,,"Breakfast, Lunch, Late Night",Street,Yes,Yes,Yes,Yes,Casual,Casual,Average,No,No,No,Yes,,Yes,No,,2
